stop_id,stop_name,stop_lat,stop_lon,location_type,parent_station
"00410","GREGORIO SETTIMO- SATOLLI","41.8951843997803","12.4392376196289","0",""
"05000","TERMINI","41.9012982675582","12.5004211645065","0",""
"05001","NERVI- PALAZZO DELLO SPORT","41.82387913514","12.4659258530075","0",""
"05002","STAZIONE TIBURTINA","41.9096673897621","12.5305363768579","0",""
"05004","PIAZZALE DELL'AGRICOLTURA","41.8366915038137","12.4714205814102","0",""
"05005","PIAZZA DEI CINQUECENTO","41.9015697321754","12.4996535277385","0",""
"05008","STAZIONE PONTE MAMMOLO","41.9205702967636","12.5654351651677","0",""
"05013","PIAZZA  AUGUSTO IMPERATORE","41.9052367188813","12.4772851990732","0",""
"05015","MANCINI","41.9309707575153","12.4641907167056","0",""
"05016","CORNELIA","41.9043616351508","12.4249161134482","0",""
"05019","STAZIONE METRO ANAGNINA","41.8429703509802","12.5849740795062","0",""
"05020","ARCO DI TRAVERTINO","41.8688988870423","12.5374472727646","0",""
"05021","CLODIO","41.9180401657723","12.4563137865335","0",""
"20002","BORGO SANT'ANGELO","41.9032958098071","12.4637590089187","0",""
"20003","ROCCA CENCIA- GIOIOSA JONICA","41.8675896839299","12.6891120767404","0",""
"20004","PRATI FISCALI- VAL DI SANGRO","41.9459731911987","12.5218598948907","0",""
"20005","FOSSO DELL'OSA- ROCCA DI CAMBIO","41.9162952522001","12.6764611744276","0",""
"20006","CASTEL PORZIANO- MARIANI","41.7376171307418","12.3725001081409","0",""
"20007","PIETRALATA- MESULA","41.9263823065805","12.535037581905","0",""
"20008","FOSSO DELL'OSA- MONTELAPIANO","41.9028531020772","12.6848020036726","0",""
"20010","LUCREZIA ROMANA","41.8240092490761","12.5864397972831","0",""
"20014","GORDIANI- AMALFI","41.8864056599581","12.5544051126488","0",""
"20015","RIBOTTA- DELOGU","41.8181260603186","12.4564686629267","0",""
"20016","RIBOTTA- BILBAO","41.8202443821997","12.4579664240867","0",""
"20017","LEGA LOMBARDA","41.9086430436804","12.5249666402144","0",""
"20018","CIMITERO LAURENTINO","41.7605752422793","12.489060097403","0",""
"20020","VAL D'ALA","41.9417590719586","12.5198243845996","0",""
"20022","SELVA CANDIDA- ROSSO","41.9372674577741","12.3780683353593","0",""
"20026","SESTO SAN GIOVANNI- DRAGONE","41.7894799443635","12.3305873696659","0",""
"20027","TRADATE- BAREGGIO","41.7914514547497","12.329547615762","0",""
"20028","TIBURTINA- LINO DA PARMA","41.9321460124908","12.5811563647863","0",""
"20029","TIBURTINA- TOR CERVARA","41.9327366216332","12.5883367403604","0",""
"20030","TIBURTINA- TIVOLI","41.9329582904265","12.5910010662811","0",""
"20031","MALATESTA- METRO C","41.8876443919335","12.5402227654847","0",""
"20032","DUCA DEGLI ABRUZZI- SCIPIONE AFRICANO","41.7337989435905","12.2636941024012","0",""
"20034","FARINATA DEGLI UBERTI- MERCATO","41.7339859837396","12.2919803373781","0",""
"20035","DEL GRECO CARLO- MERCATO","41.7341216067637","12.2907049897717","0",""
"20037","SELVA CANDIDA- BASALUZZO","41.9321859920343","12.3767087285059","0",""
"20038","SELVA CANDIDA- BASALUZZO","41.9320747937555","12.3768869584594","0",""
"20078","MOSCHEA- FORTE ANTENNE","41.9348044623692","12.4957489952014","0",""
"20079","SACRO CUORE DI MARIA- EUCLIDE","41.9274602277752","12.4819000448633","0",""
"20080","BUFALOTTA- CIVICO 1297","41.9827366074418","12.5521263087968","0",""
"20089","BUFALOTTA- CANETTI","41.9804390469245","12.5524617630721","0",""
"20108","MARCIGLIANA- BUFALOTTA","41.9913626077747","12.5529080381693","0",""
"20109","MARCIGLIANA- BUFALOTTA","41.9914677486482","12.5581371584385","0",""
"20118","STAZIONE PRIMA PORTA","42.0000628501875","12.4939074445162","0",""
"20121","AURELIA- PERSICHETTI","41.8829874700334","12.3409808450106","0",""
"20124","GARIBALDI- FABRIZI","41.8876250694429","12.4666436226613","0",""
"20125","NICCOLO' CAROSIO","41.9785139205319","12.4943170587982","0",""
"20128","PARTENOPE- IRPINIA","41.8924082779547","12.5509090109447","0",""
"20150","MANCINI","41.9313066876412","12.4646744208827","0",""
"20159","CASAL BOCCONE- ALMAVIVA","41.957861039701","12.5574160142562","0",""
"20161","CHIODELLI- PUPPINI","41.9056641144189","12.6622887266256","0",""
"20171","CASAL BOCCONE- OJETTI","41.95223098511","12.5591343097807","0",""
"20178","CASAL BOCONE- ALMAVIVA","41.9578917867266","12.5570070028891","0",""
"20181","FIORANELLO- ARDEATINA","41.7954934706233","12.535373023755","0",""
"20182","FIORANELLO- CIVICO 186","41.794309368951","12.5374602308997","0",""
"20186","DELLA GIOVANNA- /ZOO GRUNWALD","41.8707611683334","12.3451972970182","0",""
"20194","TIBURTINA- PORTONACCIO","41.9080690203355","12.5354856745755","0",""
"20195","TIBURTINA- OTTOBONI","41.9083736690124","12.5404558788587","0",""
"20196","TIBURTINA- GALLA PLACIDIA","41.9084950394193","12.5434315033752","0",""
"20197","TIBURTINA- GALLA PLACIDIA","41.9088086685615","12.5429372227154","0",""
"20198","TIBURTINA- OTTOBONI","41.9086766057199","12.5401356048135","0",""
"20203","PALMAROLA NUOVA","41.9480234047313","12.3923740597104","0",""
"20213","TOR PAGNOTTA- CECCHIGNOLA","41.8037319522185","12.505880780653","0",""
"20215","MOROSINI- NUOVO REGINA MARGHERITA ","41.8858565832396","12.4692584588782","0",""
"20218","LARGO VENTUNO APRILE","41.9176207467242","12.519862686789","0",""
"20239","CHIODELLI- DANUSSO","41.9046443152917","12.6617573190903","0",""
"20240","MERCOGLIANO- SPREGAMORE","41.734571708327","12.5562521116906","0",""
"20265","OSLAVIA/BAINSIZZA","41.9188996811191","12.4615484704818","0",""
"20288","LEVI CIVITA","41.8555878090269","12.4730640542701","0",""
"20295","MAMELI","41.8880481799359","12.4676063221001","0",""
"20296","GARIBALDI- IACOBUCCI","41.8884670661588","12.4660051354144","0",""
"20298","GARIBALDI- FABRIZI","41.8876247161461","12.4661100397457","0",""
"20300","CHIODELLI- CORBELLINI","41.9078787455059","12.6624249003661","0",""
"20303","TIBURTINA- COLLI SUL VELINO","41.9378008595656","12.6232347906449","0",""
"20305","TIBURTINA- PORTONACCIO","41.9083709730981","12.535125160167","0",""
"20308","ACQUEDOTTO DEL PESCHIERA","41.9364707622006","12.4253459570837","0",""
"20311","TALEGGIO- MORBEGNO","41.9505211335251","12.3811054808855","0",""
"20313","BOSTON","41.8290321832209","12.4712333986525","0",""
"20321","BOSTON","41.8296861052255","12.4717491850517","0",""
"20322","MARMORALE- MARAVIGNA","41.9820954786971","12.5599650878885","0",""
"20323","MAMELI","41.8883893588137","12.4675590926743","0",""
"20332","CIVITACAMPOMARANO- CASE ROSSE","41.9320006320101","12.6430363903943","0",""
"20336","CLODIO","41.9175006269486","12.455468946736","0",""
"20344","TRINITA' DEI MONTI","41.9062190589551","12.4833515187211","0",""
"20350","GARIBALDI- IACOBUCCI","41.8883909859553","12.4657797668359","0",""
"20353","SANT'ARCANGELO DI ROMAGNA","41.7899329884058","12.4077851236683","0",""
"20354","STAZIONE GROTTAROSSA","41.9640068979165","12.4889642563227","0",""
"20357","STAZIONE TIBURTINA","41.9091004316607","12.5307674606531","0",""
"20360","COLLI SUL VELINO","41.9372115619508","12.624558120344","0",""
"20368","MAR ROSSO- MARE DI BERING","41.7335755064469","12.2990238751013","0",""
"20369","LAURENTINA- CIMITERO LAURENTINO","41.7641654108484","12.4980760876771","0",""
"20370","LAURENTINA- MANDRIOLA","41.7612609853939","12.5000506727474","0",""
"20371","LAURENTINA- BELLOSGUARDO","41.7419795524788","12.5037495857727","0",""
"20373","LAURENTINA- ALPE","41.7286211098466","12.506507849713","0",""
"20374","LAURENTINA- CIVICO 1569","41.7457294602047","12.5034679625386","0",""
"20375","LAURENTINA- CIMITERO LAURENTINO","41.7637144769354","12.4991122914798","0",""
"20379","BELLA VILLA","41.8732003594083","12.5778511993373","0",""
"20387","QUATTRO VENTI- REGNOLI","41.8836601902407","12.4587328819651","0",""
"20388","GRA","41.8576987967497","12.3767551403327","0",""
"20389","COLOSSEO","41.891312680316","12.4923331442761","0",""
"20393","RUBELLIA","41.9391213502897","12.623412509465","0",""
"20397","NUVOLARI","41.8350290426466","12.5088782281354","0",""
"20398","VIA CORNELIA- VILLATA","41.8997423749961","12.3893617699466","0",""
"20399","COLOMBO- GRA","41.8001103706362","12.4414899589575","0",""
"20400","OCEANO PACIFICO- VELODROMO","41.8249802008269","12.4560776634967","0",""
"20408","LODI","41.8869517317858","12.5190878658488","0",""
"20409","TEANO- METRO C","41.8902046794554","12.5511182845312","0",""
"20416","PORTA SAN SEBASTIANO- SEPOLCRO SCIPIONI","41.8738004791814","12.5013609389287","0",""
"20423","VINCI","41.9373997159189","12.4186956386406","0",""
"20424","PITAGORA","41.9215534594386","12.4896555675005","0",""
"20435","VENEZUELA- INDIA","41.9330117864489","12.4782981936489","0",""
"20441","UMBERTO I- CASTELLO","41.7604391095432","12.3025878341741","0",""
"20468","MAR ROSSO- MARE GLACIALE ARTICO","41.7321433267598","12.3024520642646","0",""
"20488","BUAZZELLI- FABBRI","41.9404286511871","12.5669692138817","0",""
"20489","NAIDE- NICANDRO","41.9156066516734","12.6054147678156","0",""
"20501","CAMBELLOTTI","41.8694378800546","12.6319747739222","0",""
"30427","CIMITERO- VIALE UFFICI","42.008468899958","12.4934942227077","0",""
"30429","NOMENTANA- MONTE ARGENTARIO","41.9995501751544","12.629235318382","0",""
"30432","PAOLA","41.9000733753292","12.4656003630273","0",""
"30434","GREGORIO SETTIMO- DI PIETRO","41.896230197484","12.4421568394714","0",""
"30435","GREGORIO SETTIMO- SAN DAMASO","41.8955809187545","12.4448643868251","0",""
"30436","GREGORIO SETTIMO- SAN DAMASO","41.8959276211354","12.4448133137297","0",""
"30437","GREGORIO SETTIMO- DI PIETRO","41.8965145572143","12.4414936926391","0",""
"30440","PRENESTINA- BRESADOLA","41.8947220823178","12.5604749295363","0",""
"30441","TOGLIATTI- MOLFETTA","41.8913978806176","12.574670085323","0",""
"30442","PESENTI- TIBURTINA","41.932142006842","12.599453060434","0",""
"30443","TIBURTINA- ZOE FONTANA","41.9343083875604","12.6080558869757","0",""
"30444","TOR PAGNOTTA- PELOSI","41.8024021778861","12.4860383843042","0",""
"30445","TOR PAGNOTTA- PELOSI","41.8027083811192","12.4855449589534","0",""
"50000","ANAGNINA","41.8429222048014","12.5858368363178","1",""
"50001","ARCO DI TRAVERTINO","41.8660165564413","12.5359725417047","1",""
"50002","BALDO DEGLI UBALDI","41.8990631109162","12.4339926418069","1",""
"50003","BARBERINI","41.9037525882563","12.4886752049684","1",""
"50004","BASILICA SAN PAOLO","41.8559835485847","12.4783426983523","1",""
"50005","BATTISTINI","41.9062681079031","12.4149092274041","1",""
"50006","BOLOGNA","41.9136071733045","12.5208440902047","1",""
"50007","CASTRO PRETORIO","41.9062070831776","12.5055003331549","1",""
"50008","CAVOUR","41.8950591221969","12.4938181585525","1",""
"50009","CINECITTA'","41.8482262994444","12.5759026544828","1",""
"50010","CIPRO","41.9071830909744","12.4466875847789","1",""
"50011","CIRCO MASSIMO","41.8834094473529","12.4878575779813","1",""
"50012","COLLI ALBANI","41.8697435458841","12.5294530763918","1",""
"50013","COLOSSEO","41.8912606470934","12.4915473729492","1",""
"50014","CONCA D'ORO","41.9389422850612","12.5274515412312","1",""
"50015","CORNELIA","41.9006361300727","12.42637863687","1",""
"50016","EUR FERMI","41.828711506812","12.4709242104582","1",""
"50017","EUR MAGLIANA","41.8395609384628","12.4635382806674","1",""
"50018","EUR PALASPORT","41.8301390762051","12.466006167465","1",""
"50019","FLAMINIO","41.9127102234698","12.4763803141602","1",""
"50020","FURIO CAMILLO","41.8747011908585","12.5229720568859","1",""
"50021","GARBATELLA","41.8664961656148","12.4831575614436","1",""
"50022","GIULIO AGRICOLA","41.8566298520519","12.5626810157717","1",""
"50023","LAURENTINA","41.8271987808703","12.4806429234842","1",""
"50024","LEPANTO","41.9114850088278","12.4664697981833","1",""
"50025","LIBIA","41.9316754127651","12.5192490933312","1",""
"50026","LUCIO SESTIO","41.859720435297","12.5571617148834","1",""
"50027","MANZONI","41.8905805189655","12.5065113270396","1",""
"50028","MARCONI","41.8488234649895","12.4755482916448","1",""
"50029","MONTI TIBURTINI","41.9159731254202","12.5476251792864","1",""
"50030","NUMIDIO QUADRATO","41.8620504022522","12.552644342938","1",""
"50031","OTTAVIANO","41.9094412186829","12.4581040399018","1",""
"50032","PIETRALATA","41.9140568619775","12.5555695405562","1",""
"50033","PIRAMIDE","41.8756864124119","12.4820798295108","1",""
"50034","POLICLINICO","41.9087158995722","12.5122119372784","1",""
"50035","PONTE LUNGO","41.8777497158901","12.5190126126858","1",""
"50036","PONTE MAMMOLO","41.920952247889","12.5651677102456","1",""
"50037","PORTA FURBA - QUADRARO","41.8636315012844","12.5489142744896","1",""
"50038","QUINTILIANI","41.9147976064404","12.5389889055577","1",""
"50039","REBIBBIA","41.9256787635992","12.5726866358426","1",""
"50040","RE DI ROMA","41.8817991531871","12.514119789262","1",""
"50041","REPUBBLICA","41.9026798249627","12.4962926474414","1",""
"50042","S.AGNESE/ANNIBALIANO","41.9237981017919","12.5162744459328","1",""
"50043","S. GIOVANNI","41.8856051094235","12.5095539672924","1",""
"50044","S.M. DEL SOCCORSO","41.9160515759513","12.5614498421743","1",""
"50045","SPAGNA","41.9078560274437","12.4823633191898","1",""
"50046","SUBAUGUSTA","41.8532607174442","12.568668077156","1",""
"50047","TERMINI","41.901000445964","12.5000615012136","1",""
"50048","TIBURTINA F.S.","41.9101029881824","12.5302330864716","1",""
"50049","VALLE AURELIA","41.9027755101912","12.4412625531306","1",""
"50050","VITTORIO EMANUELE","41.8945373442285","12.5044239533376","1",""
"50100","ACILIA","41.7833554244102","12.3605557177043","1",""
"50101","ACQUA ACETOSA","41.9315851530879","12.4872914224685","1",""
"50105","ALESSI","41.8828922538571","12.5341903921917","1",""
"50109","APPIANO PROBA PETRONIA","41.9115464350997","12.4386198240576","1",""
"50111","AURELIA","41.8827865050363","12.3943091895665","1",""
"50113","BALDUINA","41.9207066882053","12.4365908001599","1",""
"50114","BALZANI","41.8762923851189","12.5545571635654","1",""
"50115","BASILICA S. PAOLO","41.8560488554509","12.4781695446615","1",""
"50116","BERARDI","41.8779797786214","12.5480847496394","1",""
"50120","CAMPI SPORTIVI","41.9340297620219","12.4928646469221","1",""
"50122","CAMPOLEONE","41.6424888381216","12.6482342731906","1",""
"50124","CAPANNELLE","41.8308859208176","12.5687656105981","1",""
"50126","CASAL BERNOCCHI","41.7893862154773","12.3774741124073","1",""
"50127","CASTEL FUSANO","41.7206760637647","12.308714631138","1",""
"50130","CENTOCELLE","41.8747631891021","12.5625285939612","1",""
"50131","CENTRO RAI","41.9809004643445","12.4937031821687","1",""
"50132","CESANO","42.0617334502613","12.3266311063948","1",""
"50133","CIAMPINO","41.8043983824509","12.5994314603136","1",""
"50136","COLLE MATTIA","41.8328196360238","12.7284538555121","1",""
"50138","CRISTOFORO COLOMBO","41.7145780022896","12.3221522510498","1",""
"50139","DUE PONTI","41.9568766492501","12.4863946381759","1",""
"50140","EUCLIDE","41.9264739083133","12.481654642817","1",""
"50141","EUR MAGLIANA","41.8396243895384","12.4633917737096","1",""
"50143","FIDENE","41.9794358217471","12.5085540239311","1",""
"50144","FIERA DI ROMA","41.810294849966","12.3199009799097","1",""
"50145","FILARETE","41.8815173782966","12.5385348313177","1",""
"50147","FIUMICINO","41.7917650521831","12.2534913177368","1",""
"50148","FLAMINIO","41.912892236285","12.4764141576978","1",""
"50151","GEMELLI","41.9279413414702","12.4286594285434","1",""
"50155","GROTTAROSSA","41.9642559434733","12.4900020536769","1",""
"50158","IPOGEO DEGLI OTTAVI","41.9687392531035","12.4089345277298","1",""
"50159","LABARO","41.9885202639895","12.4946302092173","1",""
"50161","LA CELSA","41.9979617727198","12.4969097524436","1",""
"50163","LA GIUSTINIANA","41.9853507457907","12.4031040995507","1",""
"50164","LA GIUSTINIANA","42.0030417832214","12.4880026317833","1",""
"50166","LA RUSTICA","41.9121248334603","12.6199548173683","1",""
"50167","LA RUSTICA CITTA'","41.9096245519832","12.6071232253781","1",""
"50168","LA STORTA - FORMELLO","42.0035225748825","12.3803804800221","1",""
"50169","LIDO CENTRO","41.7330564594883","12.2841203186818","1",""
"50171","LIDO NORD","41.7368359515982","12.2822439989971","1",""
"50172","LUNGHEZZA","41.9234298361092","12.6673656586517","1",""
"50173","MACCARESE - FREGENE","41.8793636001439","12.2367873241639","1",""
"50174","MAGLIANA","41.8343082966004","12.43128335781","1",""
"50180","MONTEBELLO","42.0110271038313","12.488978856879","1",""
"50181","MONTE MARIO","41.939136271912","12.4217423625959","1",""
"50183","MURATELLA","41.8247884976459","12.4087570992614","1",""
"50185","NOMENTANA","41.9329990854147","12.5236596435558","1",""
"50186","NUOVO SALARIO","41.9553288306762","12.5102926459168","1",""
"50187","OLGIATA","42.0154339245856","12.3638155258789","1",""
"50188","OSTIA ANTICA","41.7578484055019","12.3044019160907","1",""
"50189","OSTIENSE","41.8722255178378","12.4840435966792","1",""
"50190","OTTAVIA","41.9609238880475","12.409622238916","1",""
"50194","PARCO LEONARDO","41.7993016700437","12.2954282865291","1",""
"50197","POMEZIA - S. PALOMBA","41.7062912672031","12.5735801813009","1",""
"50198","PONTE CASILINO","41.8892933672062","12.5219573844839","1",""
"50199","PONTE GALERIA","41.8181122265418","12.3445796521429","1",""
"50200","PORTA MAGGIORE","41.8918259105859","12.5151819672134","1",""
"50201","PORTA S. PAOLO","41.8750182925906","12.4817566251567","1",""
"50202","PRENESTINA","41.8977879105733","12.546754415314","1",""
"50203","PRIMA PORTA","41.9998401656536","12.4922138202189","1",""
"50204","QUATTRO VENTI","41.8795400849434","12.458914136645","1",""
"50206","S. BIBIANA","41.8943833875806","12.5108330238474","1",""
"50207","S. ELENA","41.8871282803105","12.5261563534616","1",""
"50213","SALONE","41.9152475362526","12.6359914754064","1",""
"50214","SAN FILIPPO NERI","41.9462631529858","12.4168687796935","1",""
"50215","SAN PIETRO","41.8959754353864","12.4548987358846","1",""
"50217","SAXA RUBRA","41.974475492415","12.4931461948517","1",""
"50218","SERENISSIMA","41.9000477046905","12.5581245555412","1",""
"50219","SETTEBAGNI","42.0062312580233","12.5200963484344","1",""
"50220","STELLA POLARE","41.7272985909437","12.2950144034334","1",""
"50221","TERMINI","41.9015555335418","12.5020047607224","1",""
"50222","TERMINI LAZIALI","41.8971250801351","12.5062754984279","1",""
"50223","TIBURTINA","41.910459556877","12.531569665254","1",""
"50227","TOGLIATTI","41.9032687996442","12.5748019004546","1",""
"50228","TOR DI VALLE","41.81960872938","12.4368158638249","1",""
"50229","TORPIGNATTARA","41.8802319720041","12.5421751385654","1",""
"50236","TORRICOLA","41.8096885785001","12.5577213218316","1",""
"50237","TOR SAPIENZA","41.9058515092863","12.5879557430806","1",""
"50238","TOR VERGATA","41.823326026258","12.6662096509423","1",""
"50239","TRASTEVERE","41.8723093125558","12.466050598156","1",""
"50240","TUSCOLANA","41.8794110097813","12.5234344563758","1",""
"50242","VALLE AURELIA","41.9030331907672","12.4426704982211","1",""
"50246","VILLA BONELLI","41.848703112472","12.4553260545416","1",""
"50249","VILLINI","41.8844222329189","12.530503809195","1",""
"50250","VITINIA","41.795286761811","12.4037196182133","1",""
"70002","FLAMINIA- CANTALUPO","41.9549032761001","12.4845483377772","0",""
"70003","FLAMINIA- TOR DI QUINTO","41.9519733746096","12.4846694050873","0",""
"70004","FLAMINIA- MONTEROSI","41.9510236766768","12.4807342803127","0",""
"70005","FLAMINIA- CAPPELLI","41.9497734229065","12.4789594773012","0",""
"70006","FLAMINIA- MORLUPO","41.9478165077105","12.4756021407905","0",""
"70007","FLAMINIA- NITTI","41.9462959380768","12.4734153866042","0",""
"70008","FLAMINIA- BEVAGNA","41.944304695256","12.4720627951626","0",""
"70009","CORSO FRANCIA- FLAMINIA","41.940735590259","12.470790170034","0",""
"70010","TOR DI QUINTO- RIANO","41.9371114376045","12.4696356453402","0",""
"70011","MOZART- SIBELIUS","41.91218308825","12.5638445813238","0",""
"70012","MOZART- BADILE","41.9141916440122","12.5623719261203","0",""
"70013","ORTUCCHIO- PACENTRO","41.9367180865683","12.6503713016351","0",""
"70014","THAON DI REVEL- FORO ITALICO","41.9311047911969","12.4628669954711","0",""
"70015","THAON DI REVEL- ROMANO","41.9333327541993","12.4652736740103","0",""
"70017","FLAMINIA- CALDERINI","41.9312710824551","12.4678241930756","0",""
"70018","FLAMINIA- CARRACCI","41.9295073283812","12.4685084559036","0",""
"70019","FLAMINIA- RENI","41.9277965897247","12.469226414402","0",""
"70020","FLAMINIA- VIGNOLA","41.9249949777307","12.470365721537","0",""
"70021","FLAMINIA- FRACASSINI","41.922923126191","12.4712167356291","0",""
"70023","LITORANEA- VARCO 5","41.6586125080204","12.4144165821314","0",""
"70026","DEL FIOCCO- VALLE GIULIA","41.9136913794622","12.4806272156397","0",""
"70027","VICTOR HUGO- MUSEO BILOTTI","41.9129862151688","12.4834589860992","0",""
"70029","VICTOR HUGO- MUSEO BILOTTI","41.9133392087654","12.4828123927212","0",""
"70030","DEL FIOCCO- VALLE GIULIA","41.9137862996747","12.4810627470908","0",""
"70031","REPUBBLICA","41.902507244856","12.4971335996044","0",""
"70032","NAZIONALE- TORINO","41.9018844934181","12.4949253703352","0",""
"70033","VILLA BORGHESE- WASHINGTON","41.9124931786821","12.4774860435504","0",""
"70034","NAZIONALE- QUATTRO FONTANE","41.9001627543404","12.492304825858","0",""
"70035","NAZIONALE- PALAZZO ESPOSIZIONI","41.8991390215319","12.490738976427","0",""
"70036","LITORANEA- VARCO 4","41.6608360470088","12.4110137958246","0",""
"70037","NAZIONALE- QUIRINALE","41.8969744147806","12.4874357698733","0",""
"70038","PIAZZA VENEZIA","41.8968275716316","12.4828495090674","0",""
"70039","PIAZZA DELLA MARINA","41.9158237733055","12.4743374512047","0",""
"70041","FLAMINIA- VILLA GIULIA","41.9178813976285","12.4734343535242","0",""
"70042","LARGO TORRE ARGENTINA","41.8961220039974","12.4768551719014","0",""
"70044","CORSO VITTORIO- SANT'ANDREA DELLA VALLE","41.896574889031","12.4738936021639","0",""
"70045","ANKARA","41.9242405238074","12.4717659298685","0",""
"70046","LITORANEA- VARCO 3","41.665523602921","12.4048171892495","0",""
"70047","TIZIANO- APOLLODORO","41.9294010757555","12.4695299242451","0",""
"70048","TIZIANO- DICIASSETTESIMA OLIMPIADE","41.9322976532885","12.4683828089612","0",""
"70049","CORSO VITTORIO EMANUELE- NAVONA","41.8971961639528","12.4714482024596","0",""
"70050","LITORANEA- VARCO 2","41.6706658814356","12.3983484988979","0",""
"70051","THAON DI REVEL- PONTE MILVIO","41.9343736469418","12.4667505679375","0",""
"70052","THAON DI REVEL- ROMANO","41.9331507312215","12.4647109923374","0",""
"70053","CORSO VITTORIO EMANUELE- TASSONI","41.8988281509448","12.4674955424868","0",""
"70054","CORSO VITTORIO EMANUELE- PONTE VITTORIO","41.9004611900491","12.4653463332361","0",""
"70055","THAON DI REVEL- DUCA D'AOSTA","41.9312215696197","12.4625097405245","0",""
"70057","MARESCIALLO DIAZ- DE BOSIS","41.9326924226609","12.4607056715748","0",""
"70059","LITORANEA- VARCO 1","41.6721054783225","12.3958334632702","0",""
"70061","MARESCIALLO DIAZ - PONTE MILVIO","41.9355825080867","12.464814215911","0",""
"70064","LITORANEA- VARCO 1","41.6714167078793","12.3966613993948","0",""
"70065","CORSO FRANCIA- FLAMINIA","41.940813736064","12.4710669230672","0",""
"70066","FLAMINIA- BEVAGNA","41.9449646574418","12.472668808918","0",""
"70067","ACCIAIOLI","41.899741993691","12.464937034988","0",""
"70068","FLAMINIA- NITTI","41.9465909221421","12.4738060430164","0",""
"70069","FLAMINIA- MORLUPO","41.9477222477715","12.4764346250891","0",""
"70070","CORSO VITTORIO EMANUELE- TASSONI","41.8989436560206","12.4670870320014","0",""
"70071","FLAMINIA- CAPPELLI","41.9489049525412","12.478453261943","0",""
"70072","CORSO VITTORIO EMANUELE- CHIESA NUOVA","41.8974841261116","12.4696159262853","0",""
"70073","CORSO VITTORIO EMANUELE- NAVONA","41.8970025546606","12.4717705760711","0",""
"70074","FLAMINIA- MONTEROSI","41.9509128344139","12.4811038906238","0",""
"70075","LITORANEA- VARCO 2","41.6698851031697","12.3990018031427","0",""
"70076","LITORANEA- VARCO 3","41.6649624737357","12.4050919353166","0",""
"70078","PIAZZA VENEZIA","41.8967397222393","12.483129155533","0",""
"70079","NAZIONALE- QUIRINALE","41.8970538669789","12.4878433230229","0",""
"70080","FLAMINIA- CANTALUPO","41.9546436213206","12.4848637942987","0",""
"70081","NAZIONALE- PALAZZO ESPOSIZIONI","41.8984554315788","12.4899044771426","0",""
"70082","NAZIONALE- QUATTRO FONTANE","41.8999873705289","12.4922866439191","0",""
"70083","FLAMINIA- STAZIONE DUE PONTI","41.9555711243721","12.4849419221534","0",""
"70084","NAZIONALE- TORINO","41.9018441547251","12.4951140996065","0",""
"70085","TERME DIOCLEZIANO","41.9018287310907","12.497102458682","0",""
"70087","LITORANEA- VARCO 4","41.6608970346298","12.410603270609","0",""
"70088","LITORANEA- VARCO 5","41.6582289258887","12.4147580195939","0",""
"70092","TOMACELLI","41.9048943147962","12.4761063180609","0",""
"70093","GREGORIO SETTIMO- RANUCCI","41.8965592029489","12.449897912906","0",""
"70095","LAGO MAGGIORE","41.6485936544621","12.4310913353325","0",""
"70096","PO- SESIA","41.658859846882","12.4224147374057","0",""
"70097","PORTUENSE- CAMPI SPORTIVI","41.8420413933716","12.3854023054349","0",""
"70098","PORTUENSE- CAMPI SPORTIVI","41.8419535296267","12.3857013439707","0",""
"70100","PIAZZA DELLA ROVERE","41.8994987883053","12.46155202265","0",""
"70101","LUNGOTEVERE GIANICOLENSE- REGINA COELI","41.8961584732137","12.4648171376866","0",""
"70102","LUNGOTEVERE FARNESINA","41.8944020425663","12.4669210243172","0",""
"70103","LUNGOTEVERE FARNESINA- TRILUSSA","41.89241398361","12.4694592366049","0",""
"70104","GIANICOLENSE- CASALETTO","41.8775162452365","12.4412708624668","0",""
"70105","ARENULA- MINISTERO GRAZIA E GIUSTIZIA","41.8922482558349","12.4748005254464","0",""
"70106","ISOLA FARNESE- VALLE BOSCO","42.0188518536184","12.3888310023968","0",""
"70107","ISOLA FARNESE- VALLE BOSCO","42.0188557008289","12.388604403233","0",""
"70108","CERNAIA","41.9046645249706","12.4977708112329","0",""
"70110","PALESTRO","41.9079913438986","12.5005843028562","0",""
"70111","PORTA PIA","41.9086590149495","12.5021303666728","0",""
"70112","CROCE ROSSA","41.9080462683616","12.5042783648191","0",""
"70117","PADRE SEMERIA- VALIGNANO","41.8657329760134","12.4946657057447","0",""
"70118","RAVENNA- PIAZZA","41.9129931625048","12.5189278818534","0",""
"70120","LORENZO IL MAGNIFICO- STAMIRA","41.9131462411331","12.5218445738391","0",""
"70121","LORENZO IL MAGNIFICO- DA PROCIDA","41.9119136312094","12.5255017148241","0",""
"70122","LORENZO IL MAGNIFICO- TEODORICO","41.9109418840535","12.5284240664426","0",""
"70123","STAZIONE TIBURTINA ","41.9098029790827","12.5295164506235","0",""
"70124","PADRE SEMERIA- COLOMBO","41.8635178325541","12.4965561796729","0",""
"70126","BOLOGNA ","41.9145227844951","12.5221992346639","0",""
"70127","RAVENNA- PIAZZA","41.9131615903947","12.5192203695201","0",""
"70128","CATANZARO","41.9118790876442","12.517158108584","0",""
"70130","CHIANESI ","41.802703884568","12.4478339028015","0",""
"70133","POLICLINICO ","41.9090920564462","12.5074044256959","0",""
"70134","CORSO FRANCIA- URUGUAY","41.9350356992751","12.4720681938967","0",""
"70135","CROCE ROSSA","41.908455328422","12.5031992510662","0",""
"70136","PORTA PIA","41.9090962381306","12.5020265066247","0",""
"70137","VENTI SETTEMBRE- PIAVE","41.9070376098535","12.4982070014918","0",""
"70138","VENTI SETTEMBRE- MINISTERO FINANZE","41.9056323906734","12.4961962943493","0",""
"70139","TARANTELLI","41.8187701578677","12.4363798119322","0",""
"70140","CORSO FRANCIA- PONTE FLAMINIO","41.9379748089172","12.4715547586866","0",""
"70141","FIUME GIALLO- FIUME AZZURRO","41.8120682528379","12.4323138775723","0",""
"70142","CORSO FRANCIA- BODIO","41.9443929798096","12.4695309263916","0",""
"70143","VILLA SEVERINI","41.9466551402634","12.4698881926732","0",""
"70144","FIUME GIALLO- CIVICO 321","41.8132505252337","12.4335259857354","0",""
"70145","CASSIA- JACINI","41.9486976710787","12.4697827551039","0",""
"70148","CASSIA- FABBRONI","41.9512663826071","12.4679082524825","0",""
"70149","LUNGOTEVERE VALLATI- PETTINARI","41.8923877110312","12.471796816248","0",""
"70150","CASSIA- INVIOLATELLA BORGHESE","41.9568394151909","12.4605848931284","0",""
"70151","LUNGOTEVERE TEBALDI- ARMATA","41.8950794848147","12.4684400240374","0",""
"70152","CASSIA- ORIOLO ROMANO","41.9574589309233","12.4577357011825","0",""
"70153","FIUME GIALLO- CIVICO 257","41.8142222819001","12.4330838834071","0",""
"70154","FIUME GIALLO- CIVICO 196","41.813235578977","12.4294366237994","0",""
"70155","CASSIA- SAN GODENZO","41.9600344091658","12.452653102044","0",""
"70157","FIUME GIALLO- CIVICO 82","41.8101885540865","12.4286978373414","0",""
"70159","FIUME GIALLO- CIVICO 13","41.8085086934987","12.4295475020627","0",""
"70161","GREGORIO SETTIMO- STAZIONE SAN PIETRO ","41.8978565490105","12.4505695122697","0",""
"70162","GREGORIO SETTIMO- RANUCCI","41.8962001270649","12.4493598789765","0",""
"70163","CASSIA- VILLA SAN PIETRO ","41.962735812106","12.4477762212949","0",""
"70164","CASSIA- SAN GODENZO","41.9601594866112","12.451999578492","0",""
"70165","GREGORIO SETTIMO- SAN DAMASO","41.8958369786702","12.4447645417754","0",""
"70166","CASSIA- SANTA GIOVANNA ELISABETTA","41.9571546248892","12.4559518870584","0",""
"70167","GREGORIO SETTIMO- DI PIETRO","41.8964255153439","12.4415121096529","0",""
"70168","GREGORIO SETTIMO- ANASTASIO SECONDO","41.8951298164457","12.4387691102586","0",""
"70169","SCIANGAI","41.8073319482614","12.4314362135695","0",""
"70170","GIOLITTI","41.8975662811639","12.505323506421","0",""
"70171","TEMPIO DEL CIELO","41.8070575182546","12.4338636070726","0",""
"70172","BEATA VERGINE DEL CARMELO- MONTE TAI","41.8071177709985","12.4361572585485","0",""
"70173","CORSO FRANCIA- VIGNA STELLUTI","41.9459976716026","12.4692284838686","0",""
"70175","CORSO FRANCIA- BODIO","41.9438984972769","12.469323710907","0",""
"70179","CORSO FRANCIA- PONTE FLAMINIO","41.9379030795671","12.4712190985724","0",""
"70180","VIMINALE","41.8998060654494","12.4944768597917","0",""
"70181","CORSO FRANCIA- URUGUAY","41.9348451067561","12.4717461497411","0",""
"70183","CORSO RINASCIMENTO","41.8972768584381","12.4742196394175","0",""
"70184","SENATO","41.9002657406857","12.4739149970288","0",""
"70185","BEATA VERGINE DEL CARMELO","41.8081925400563","12.4434605047467","0",""
"70187","ZANARDELLI","41.9013841089814","12.4721869968725","0",""
"70188","LUNGOTEVERE MARZIO","41.903010948571","12.4738819621298","0",""
"70189","VITTORIA COLONNA","41.9051867837681","12.4717268499283","0",""
"70190","PIAZZA CAVOUR","41.9059542454701","12.4700502265822","0",""
"70191","CICERONE- PLINIO","41.9080416450172","12.4682040606518","0",""
"70192","BEATA VERGINE DEL CARMELO- MONTE TAI","41.8072829558308","12.4358918721686","0",""
"70193","SCIANGAI","41.8075024102475","12.4308034727566","0",""
"70194","FIUME GIALLO- CIVICO 13","41.8087455298683","12.4296102280664","0",""
"70195","FIUME GIALLO- CIVICO 82","41.8104767536988","12.428698342154","0",""
"70197","LARGO TRIONFALE","41.9109801425437","12.4548509794747","0",""
"70198","GIULIANA- GRAZIOLI LANTE","41.9131799739483","12.4543198209023","0",""
"70199","GIULIANA- PRETURA","41.9152087190299","12.4538338258187","0",""
"70200","CLODIO","41.9175248289712","12.4554199805867","0",""
"70201","GIULIANA- PRETURA","41.9150567087483","12.4537332071101","0",""
"70202","GIULIANA- GRAZIOLI LANTE","41.9124783286823","12.4542842963292","0",""
"70203","LARGO TRIONFALE","41.9110183127734","12.4546740818195","0",""
"70206","VIGNA STELLUTI- FRANCIA","41.9473620314328","12.4674426820315","0",""
"70207","VIGNA STELLUTI- GIUOCHI DELFICI","41.9480658263344","12.4640367510149","0",""
"70208","CASSIA- PARETO","41.9506257031506","12.4604781894881","0",""
"70209","CASSIA- CORTINA D'AMPEZZO","41.9524621303161","12.4574535446329","0",""
"70210","CASSIA- VAL GARDENA","41.9556713352236","12.4570905216367","0",""
"70211","CASSIA- ORIOLO ROMANO","41.9572117754977","12.4574461115424","0",""
"70212","CASSIA- CORTINA D'AMPEZZO","41.9518945189821","12.4580868461522","0",""
"70213","CASSIA- PARETO","41.949840523901","12.4613848502595","0",""
"70214","VIGNA STELLUTI","41.9479389586987","12.4640922491392","0",""
"70217","CINA- FIUME AZZURRO","41.8118549012547","12.4329346963376","0",""
"70218","TARANTELLI","41.8186767466127","12.4362370822201","0",""
"70219","ARGENTINA- BOLIVIA","41.9325623743835","12.4763717296659","0",""
"70220","DICIASSETTESIMA OLIMPIADE","41.9327852676335","12.4737318985177","0",""
"70221","DICIASSETTESIMA OLIMPIADE- AUSTRIA","41.9324924442245","12.4714024797917","0",""
"70222","UNIONE SOVIETICA","41.9306615993192","12.4710282185897","0",""
"70224","DE COUBERTIN- AUDITORIUM","41.9301830629356","12.4757590372","0",""
"70225","GUIDUBALDO DEL MONTE","41.9279353505324","12.4787799802426","0",""
"70226","STAZIONE EUCLIDE","41.9275410602791","12.4819369238435","0",""
"70227","PARIOLI- ACQUA ACETOSA","41.929603222357","12.4844036559767","0",""
"70228","PARIOLI- STUPARICH","41.9290581238046","12.4859263783331","0",""
"70229","PARIOLI- SANTIAGO DEL CILE","41.9261571293437","12.4864030163115","0",""
"70232","ROSSINI- BERTOLONI","41.9205442280774","12.4915152144844","0",""
"70233","BIOPARCO- MERCADANTE","41.9185224441748","12.4909447724345","0",""
"70234","DECIMA- PIANETA TERRA","41.8188505293824","12.4461721692085","0",""
"70235","TARTINI","41.9163606794167","12.4953905183213","0",""
"70236","SALARIA- ISONZO","41.9133121551376","12.4975098164757","0",""
"70237","SALARIA- ANIENE","41.9118554634155","12.4978595024369","0",""
"70238","PIAVE- VENTI SETTEMBRE","41.9077126171354","12.4986895080063","0",""
"70239","INDIPENDENZA","41.9047098247903","12.5019443082344","0",""
"70240","TERMINI (MA-MB-FS)","41.9010002974706","12.4997348519488","0",""
"70243","SANTA MARIA MAGGIORE","41.8969714219675","12.4982037064427","0",""
"70245","PIAZZA VITTORIO EMANUELE ","41.8939516912407","12.5037355761684","0",""
"70246","CONTE VERDE- PIAZZA VITTORIO EMANUELE","41.8934465974896","12.5061812569289","0",""
"70247","VIA SANTA CROCE IN GERUSALEMME- MANZONI","41.8917550330215","12.5092172547574","0",""
"70248","VIA SANTA CROCE IN GERUSALEMME- STATILIA","41.8900771561044","12.5122525592511","0",""
"70249","VIA SANTA CROCE IN GERUSALEMME","41.8888768340606","12.5143267409485","0",""
"70252","LA SPEZIA- LODI","41.8870927503646","12.520779344954","0",""
"70253","ALGHERO","41.8863485832843","12.52151678986","0",""
"70254","VILLA FIORELLI","41.8842254483683","12.5224551597795","0",""
"70255","PIANETA TERRA- PIANETA GIOVE","41.8174357423484","12.4450174186388","0",""
"70256","LEPANTO ","41.9118490712943","12.4657523887647","0",""
"70257","PIANETA SATURNO","41.8159430994735","12.4447913183386","0",""
"70258","CICERONE- PLINIO","41.9075613602329","12.4683508735012","0",""
"70259","CICERONE- CAVOUR","41.9060997532919","12.4691729512298","0",""
"70261","VITTORIA COLONNA","41.9050235616503","12.4723136820279","0",""
"70262","VIA DI RIPETTA","41.9040538539881","12.4752339948443","0",""
"70263","MONTE BRIANZO","41.9028067803864","12.4740491193051","0",""
"70264","COSTELLAZIONI- PIANETA GIOVE","41.8151141447605","12.4466246722221","0",""
"70266","CORSO RINASCIMENTO","41.898002063574","12.4739294190923","0",""
"70267","COSTELLAZIONI- ORSA MAGGIORE","41.8147119139138","12.4493944508091","0",""
"70268","ESQUILINO- CAVOUR","41.8984223647668","12.4966355047249","0",""
"70269","RATTAZZI- GIOLITTI","41.8980727001372","12.5037133718331","0",""
"70270","RATTAZZI- NAPOLEONE TERZO","41.8963494138488","12.5019859910272","0",""
"70273","DE LOLLIS- IRPINI","41.9009882587853","12.5157162422827","0",""
"70274","MARRUCINI","41.8999359178456","12.5139898609702","0",""
"70275","TIBURTINA- MARRUCINI","41.898220898412","12.51393406757","0",""
"70276","DECIMA- COMETE","41.8107338118627","12.4538076914912","0",""
"70277","MARSALA","41.8988980788028","12.5079933279488","0",""
"70278","CAVOUR- ESQUILINO","41.8979868707309","12.4966702706982","0",""
"70279","PANISPERNA","41.8971711819924","12.4945914519635","0",""
"70280","MILANO","41.8970975057991","12.4925106335897","0",""
"70281","MILANO- NAZIONALE","41.8985045262709","12.4908252706499","0",""
"70282","TRITONE- FONTANA TREVI","41.9026774765045","12.4846326121983","0",""
"70285","TRAFORO- TRITONE","41.9022015184007","12.4861948415244","0",""
"70286","MILANO- NAZIONALE","41.8991847778779","12.4897426987651","0",""
"70288","DECIMA- COMETE","41.8096796180441","12.4538700755003","0",""
"70289","TROIANI- DECIMA","41.8129732166784","12.4518024799454","0",""
"70290","TROIANI- COSTELLAZIONI","41.8124413445546","12.4505619899563","0",""
"70291","COSTELLAZIONI- ORSA MAGGIORE","41.8151721411569","12.4489562895731","0",""
"70292","TIBURTINA- MARRUCINI","41.8989095813464","12.5155038820999","0",""
"70293","TIBURTINA- RETI","41.8995795175941","12.516829259684","0",""
"70294","INDIPENDENZA","41.9041815771545","12.5028504388521","0",""
"70295","PIANETA GIOVE","41.8155426169362","12.4466557972123","0",""
"70298","PIANETA TERRA- PIANETA GIOVE","41.8173799166814","12.4452434403893","0",""
"70299","DANDOLO- GLORIOSO","41.8842723785239","12.4680706690147","0",""
"70300","DANDOLO","41.8852559255952","12.4665195339712","0",""
"70301","FABRIZI","41.8862423783057","12.4647926771839","0",""
"70302","CALANDRELLI","41.8850241351203","12.4630200734691","0",""
"70303","PIANETA TERRA- DECIMA","41.8182961858613","12.4465553807726","0",""
"70304","CARINI- PILO","41.8823086548216","12.4607126770482","0",""
"70305","BARRILI","41.8798306692042","12.4605849202566","0",""
"70307","POERIO","41.8760961614847","12.4611206278749","0",""
"70308","POERIO- FRATELLI BANDIERA","41.8806513119812","12.463350993197","0",""
"70309","POERIO- DALL'ONGARO","41.8781363101968","12.4631463035944","0",""
"70310","QUADRIO","41.8818858073432","12.461279586081","0",""
"70311","BONNET- CARINI","41.8850428415857","12.461368627186","0",""
"70312","DANDOLO- FABRIZI","41.8861994730737","12.4656427139166","0",""
"70313","DANDOLO- CASINI","41.8834815235041","12.4664563619816","0",""
"70319","GRANDE MURAGLIA- OCEANO PACIFICO","41.823700667749","12.4559274773833","0",""
"70320","GRANDE MURAGLIA- ROTTERDAM","41.8205361725344","12.4541745051559","0",""
"70322","GRANDE MURAGLIA- SIVIGLIA","41.8190494645311","12.4514765802352","0",""
"70323","GATTAMELATA- CANE","41.8882998999098","12.5366899611116","0",""
"70324","GATTAMELATA- DI BASTELICA","41.8900531067175","12.5366370292695","0",""
"70327","GRANDE MURAGLIA- DECIMA","41.8167257428338","12.4475118896527","0",""
"70328","PRENESTINA- PIAZZALE PRENESTINO","41.8913681587876","12.5276254469729","0",""
"70329","AQUILA","41.8906528659777","12.5254189119563","0",""
"70330","PONTE CASILINO","41.8892690813932","12.523014855938","0",""
"70331","LA SPEZIA- LODI","41.887065258693","12.5198138229714","0",""
"70335","PORTA SAN GIOVANNI ","41.886333738649","12.5090170595956","0",""
"70340","COLOSSEO","41.8912625744897","12.4914679330207","0",""
"70341","FORI IMPERIALI","41.8936627582914","12.4864928659712","0",""
"70342","FORI IMPERIALI- CAMPIDOGLIO","41.8949925055736","12.4841875467169","0",""
"70344","LUNGOTEVERE MARZIO- PORTO DI RIPETTA","41.9042570822453","12.4749095320756","0",""
"70347","PIAZZA COLA DI RIENZO","41.9084564632471","12.4670863358475","0",""
"70348","COLA DI RIENZO- REGOLO","41.9078734595044","12.4646298430372","0",""
"70349","COLA DI RIENZO- TERENZIO","41.9073190436718","12.4623647872238","0",""
"70350","COLA DI RIENZO- CATONE","41.9065802633997","12.4594747167201","0",""
"70351","RISORGIMENTO","41.9061854968715","12.4583827609811","0",""
"70352","COLA DI RIENZO- CATONE","41.9064861322594","12.4595545250482","0",""
"70353","COLA DI RIENZO- TERENZIO","41.9074107322754","12.4634910386011","0",""
"70354","COLA DI RIENZO- TACITO","41.9081878263921","12.4665403101858","0",""
"70357","MARIA ADELAIDE","41.9098104701705","12.4743529524335","0",""
"70358","PASSEGGIATA RIPETTA","41.9088425064101","12.4742675060609","0",""
"70359","AUGUSTO IMPERATORE","41.9053169992815","12.477305786976","0",""
"70360","TOMACELLI","41.9045999141274","12.4777463268344","0",""
"70361","CORSO- LARGO CHIGI","41.9018299700466","12.4799710345088","0",""
"70362","GRANDE MURAGLIA- PIANETA SATURNO","41.8149537215213","12.4446334871394","0",""
"70364","CAVOUR- RICCI","41.8936444109536","12.4889761159852","0",""
"70365","FORI IMPERIALI","41.8933260985059","12.4868854135546","0",""
"70366","GRANDE MURAGLIA- PIANETA SATURNO","41.8147522271595","12.4447368481161","0",""
"70367","LABICANA- COLOSSEO","41.8902414299342","12.4951338719837","0",""
"70369","LABICANA- MERULANA","41.8891080285476","12.5028543207525","0",""
"70370","GRANDE MURAGLIA- DECIMA","41.8165741916959","12.4476646270024","0",""
"70371","PORTA SAN GIOVANNI ","41.8866929810831","12.5085149887719","0",""
"70372","PIAZZALE APPIO ","41.8855695752502","12.5095438981095","0",""
"70374","PONTE CASILINO","41.8884282992831","12.5225672707522","0",""
"70375","CASILINA- SANT'ELENA","41.8871433674791","12.5260227637075","0",""
"70376","GRANDE MURAGLIA- SIVIGLIA","41.8187261348124","12.4513603382087","0",""
"70377","GRANDE MURAGLIA- ROTTERDAM","41.8204415229674","12.4545420354736","0",""
"70378","PRENESTINA- GIOVENALE","41.8918627535203","12.5315823249879","0",""
"70379","PRENESTINA- GIUSSANO","41.892172184502","12.5346656375267","0",""
"70382","DAL VERME- GATTAMELATA","41.8886053263567","12.5371669834915","0",""
"70383","DAL VERME- DEGLI UBERTINI","41.8885969333764","12.5396298752655","0",""
"70386","GRANDE MURAGLIA- OCEANO PACIFICO","41.8237823822997","12.4563094664872","0",""
"70387","PIAZZA VENEZIA","41.895993818651","12.4820460497597","0",""
"70388","ARDEATINA- MILLEVOI 1","41.8221579656855","12.5195078414439","0",""
"70389","SAN GIOVANNI IN LATERANO- SAN CLEMENTE","41.8887022142515","12.49846122855","0",""
"70390","SAN GIOVANNI IN LATERANO","41.8881302970829","12.5003651625026","0",""
"70391","PZA S. GIOVANNI IN LATERANO (H)","41.8870167404624","12.5044074064686","0",""
"70392","PORTA SAN GIOVANNI ","41.8864077956733","12.5078649296925","0",""
"70393","TARANTO- PONTREMOLI","41.8849846719376","12.5125885947247","0",""
"70394","TARANTO- AOSTA","41.8843363018308","12.5154354687898","0",""
"70395","TARANTO- CASALMAGGIORE","41.8838091931317","12.5177329885129","0",""
"70396","TARANTO- LUGO","41.8828852949092","12.521023541438","0",""
"70397","TARANTO- RAGUSA","41.8817633677605","12.5222697622263","0",""
"70398","MONSELICE- STAZIONE TUSCOLANA","41.8799444159996","12.5224361929874","0",""
"70399","TUSCOLANA- GELA","41.879102879333","12.522119913128","0",""
"70400","TUSCOLANA- AMELIA","41.8774590347736","12.5246632129746","0",""
"70401","TUSCOLANA- CLELIA","41.874971349954","12.5282039150273","0",""
"70402","PIAZZA SANTA MARIA AUSILIATRICE","41.8737882114644","12.5298778524987","0",""
"70403","TUSCOLANA- VOLUMNIA","41.8722114514531","12.5328381017867","0",""
"70404","ALBANO","41.8699972568753","12.532545964229","0",""
"70405","ARDEATINA- CECCHIGNOLA","41.8229345236123","12.5191092774357","0",""
"70406","NUMITORE","41.8720722605162","12.529738471708","0",""
"70407","TUSCOLANA- SANTA MARIA AUSILIATRICE","41.8735639168511","12.5308923716392","0",""
"70408","TUSCOLANA- CLELIA","41.875825085391","12.5273558046869","0",""
"70409","TUSCOLANA- AMELIA","41.8776278462227","12.5246918576146","0",""
"70410","TUSCOLANA- ASSISI","41.8784139860291","12.5235829595407","0",""
"70411","MONSELICE- STAZIONE TUSCOLANA","41.8799776777557","12.522760941292","0",""
"70412","ADRIA","41.8776039859633","12.5200606246358","0",""
"70413","GELA","41.8781572012641","12.5197757605318","0",""
"70414","RAGUSA","41.8818507273233","12.5229199344748","0",""
"70415","OLEVANO ROMANO","41.8921712588284","12.5552736050676","0",""
"70416","TARANTO- CASALMAGGIORE","41.8841387425097","12.5167761999945","0",""
"70417","RAGUSA","41.8816587642868","12.5232069023125","0",""
"70418","TARANTO- MONZA","41.8846363040777","12.514652051536","0",""
"70419","VILLA FIORELLI","41.8841097330795","12.5227956665122","0",""
"70420","RIMINI","41.8845077334132","12.5122060270722","0",""
"70421","ALGHERO","41.8865263393402","12.5216159730596","0",""
"70422","PIAZZALE APPIO ","41.8850940360891","12.5103638181947","0",""
"70423","VEIENTANA VETERE- ROMANENGO","41.9889643677522","12.4887664477676","0",""
"70424","PIAZZA SAN GIOVANNI IN LATERANO ","41.8872755611647","12.5050695315394","0",""
"70425","MONZA- LA SPEZIA","41.8859315792065","12.5155587906646","0",""
"70426","VIA SANTA CROCE IN GERUSALEMME- STATILIA","41.890773354699","12.511303133827","0",""
"70427","CONTE VERDE- MANZONI","41.8923981151188","12.5083620783338","0",""
"70428","CONTE VERDE- PIAZZA VITTORIO EMANUELE","41.8935054929104","12.5063542271914","0",""
"70431","PIAZZA VITTORIO EMANUELE ","41.8959134198921","12.502035593298","0",""
"70432","CARLO ALBERTO","41.8969338780333","12.5000827841319","0",""
"70433","GIOBERTI","41.8995019337099","12.5013722044672","0",""
"70436","MAZZOLARI- FOLLEREAU","41.8923024546849","12.678023010506","0",""
"70437","CRIVELLUCCI","41.868327616605","12.5257805033963","0",""
"70438","FORTIFIOCCA- DENINA","41.8707434018732","12.5226935954412","0",""
"70439","TERMINI ","41.9015218771689","12.4991105181004","0",""
"70441","VOLTURNO- GAETA","41.9040320755255","12.5003632972668","0",""
"70443","VOLTURNO- CERNAIA","41.9051765503828","12.498919508393","0",""
"70444","BACCARINI- PAPI","41.8735322589679","12.5172213762576","0",""
"70445","GOITO- VENTI SETTEMBRE","41.9070564385243","12.4992327818046","0",""
"70446","FIUME","41.9108920601612","12.4982083799346","0",""
"70447","BACCARINI- CIRCONVALLAZIONE APPIA","41.8756111205212","12.5167359930764","0",""
"70448","DON ORIONE","41.8785087638424","12.5151335696925","0",""
"70450","ALBALONGA","41.8794126049246","12.5131957798815","0",""
"70451","CENEDA","41.8806776592991","12.5109357189701","0",""
"70453","MAGNA GRECIA- TUSCOLO","41.8810127041323","12.5082280836873","0",""
"70454","PAISIELLO- MONTEVERDI","41.9178363445185","12.4935661558623","0",""
"70455","FALERIA","41.8832893070304","12.5108225793754","0",""
"70456","PAISIELLO- BELLINI","41.9197824344655","12.492665356454","0",""
"70457","BERTOLONI","41.9212453402584","12.491454043766","0",""
"70458","PARIOLI- UNGHERIA","41.9235303125052","12.4912553811527","0",""
"70459","PARIOLI- OXILIA","41.9251198799908","12.4895999706643","0",""
"70460","SANTIAGO DEL CILE","41.9257821233593","12.4873381958859","0",""
"70461","PARIOLI- STUPARICH","41.9290070922335","12.4860634551623","0",""
"70462","MARESCIALLO PILSUDSKI- PARCO RIMEMBRANZA","41.9284318197502","12.4800330973762","0",""
"70464","DE COUBERTIN","41.9307685964244","12.4765861327265","0",""
"70465","SALVINI","41.9293631064343","12.4930334481565","0",""
"70466","MUSE","41.9303343853293","12.4902938998096","0",""
"70467","DIGIONE","41.9275961278782","12.4910947272519","0",""
"70468","VILLA SAN FILIPPO","41.927037401118","12.4927209831722","0",""
"70470","ROMANIA","41.924547932081","12.49283738728","0",""
"70471","UNGHERIA","41.9232329655293","12.4924180225957","0",""
"70472","GUIDO D'AREZZO","41.9208441951787","12.4931847912697","0",""
"70473","BELLINI","41.9202466966852","12.4949786123387","0",""
"70474","ZANARDELLI","41.9010029483512","12.4722272751871","0",""
"70475","CIMAROSA","41.9195386153772","12.4966906081073","0",""
"70478","SALARIA- ADDA","41.9145207428591","12.4972430031664","0",""
"70479","COLOSSEO","41.8910661608335","12.4916023424057","0",""
"70480","MERULANA- SAN GIOVANNI","41.8880559641979","12.504056887114","0",""
"70481","MAGNA GRECIA ","41.8844111422619","12.5092315839273","0",""
"70482","MAGNA GRECIA- TUSCOLO","41.8812114394392","12.5081065846046","0",""
"70483","ETRURIA- TUSCOLO","41.8797814201943","12.5092280295905","0",""
"70484","ETRURIA- ALBALONGA","41.8791412710245","12.5118995466418","0",""
"70485","EMANUELE FILIBERTO- DANTE","41.892471492675","12.5055455347037","0",""
"70486","LARGO DON ORIONE","41.878202708765","12.5158065341564","0",""
"70487","MANZONI ","41.8897120071708","12.5069512961121","0",""
"70488","BACCARINI- CIRCONVALLAZIONE APPIA","41.8758514985984","12.5165242422924","0",""
"70489","MAZZOLARI- FOLLEREAU","41.892331788123","12.6777062275394","0",""
"70490","EPIRO","41.8777237821856","12.5048544592026","0",""
"70491","LATINA","41.8755933786298","12.5042490822905","0",""
"70492","ACAIA","41.8748726039471","12.5072122367956","0",""
"70494","ZAMA","41.8763422121916","12.5099933656632","0",""
"70495","BACCARINI- PAPI","41.873650260919","12.5170143737862","0",""
"70497","BARONIO","41.8720066224561","12.5194270303891","0",""
"70500","EPIRO","41.8785207013988","12.5057199971504","0",""
"70501","SATURNIA","41.8802790881546","12.5064035468908","0",""
"70503","FORTIFIOCCA- BARONIO","41.8723377143082","12.5207474718741","0",""
"70504","FORTIFIOCCA- DENINA","41.8703205247556","12.5228630554447","0",""
"70505","DE SANCTIS","41.8689570010191","12.524651415507","0",""
"70506","MANZONI ","41.8908485789301","12.5065129722487","0",""
"70507","EMANUELE FILIBERTO- DANTE","41.8927748046698","12.5055988932552","0",""
"70508","LENORMANT- ZELIA NUTTAL","41.7738587555084","12.3325782497257","0",""
"70509","ZAMA","41.8761266241999","12.5101848997385","0",""
"70510","SATRICO- COLLAZIA","41.877237047412","12.5073220143673","0",""
"70511","EPIRO","41.8788590117084","12.5040486773408","0",""
"70512","PANNONIA- DE MATTIAS","41.8802155116385","12.5011615087213","0",""
"70513","PANNONIA- TRACIA","41.8814767845431","12.4998590302078","0",""
"70514","TERME CARACALLA- VALLE CAMENE","41.881003644126","12.4948717170285","0",""
"70515","TERME CARACALLA- PORTA CAPENA","41.8835788249185","12.4904189816524","0",""
"70516","LENORMANT- ZELIA NUTTAL","41.7739931547883","12.3325486159752","0",""
"70517","CERCHI- BOCCA DELLA VERITA'","41.8885762006643","12.4826812546817","0",""
"70518","PETROSELLI","41.8901523196652","12.4809642795418","0",""
"70520","PRENESTINA- CONTI","41.8922841574179","12.5401780394528","0",""
"70522","AZUNI- MINISTERO MARINA","41.9147020550613","12.4722770821648","0",""
"70523","SETTEMBRINI- MARTIRI BELFIORE","41.9147972327266","12.4677869457258","0",""
"70524","SETTEMBRINI- MAZZINI","41.9156450918471","12.4647304688444","0",""
"70525","OSLAVIA/MAZZINI","41.9167281936707","12.4631279180592","0",""
"70530","VITTORIA- MARESCIALLO GIARDINO","41.9232517696146","12.4607678480632","0",""
"70531","VITTORIA- TIMAVO","41.9218933996282","12.4633494746714","0",""
"70533","CARSO","41.9200049442256","12.4628697819247","0",""
"70535","OSLAVIA/MAZZINI","41.9166031874824","12.4629321123999","0",""
"70539","AUGUSTO IMPERATORE- ARA PACIS","41.9064194339451","12.4766548048756","0",""
"70540","TEATRO MARCELLO- ARA COELI","41.8931141540838","12.4811612169736","0",""
"70543","PETROSELLI","41.8902538822448","12.4807074287423","0",""
"70544","LIEGI- BELLINI","41.9205651193781","12.4970247253718","0",""
"70545","GRECA","41.887525820374","12.481591248219","0",""
"70546","LIEGI- UNGHERIA","41.9217648088697","12.4943610080478","0",""
"70547","CIRCO MASSIMO- ROSETO COMUNALE","41.8849526162234","12.4853450067413","0",""
"70548","ROMANIA","41.9251949274597","12.4933027466687","0",""
"70549","CIRCO MASSIMO ","41.8840623674117","12.4869175909797","0",""
"70550","SALVINI- BLIGNY","41.927236018308","12.4934138951926","0",""
"70552","CAMPO FARNIA- CIVICO 166","41.8302486725388","12.5775272772722","0",""
"70554","TERME CARACALLA- PORTA CAPENA","41.88292274376","12.4911296535619","0",""
"70555","PORTA METRONIA","41.8820762221023","12.4985202651829","0",""
"70556","ALBALONGA- RE DI ROMA","41.8808877128987","12.5138138000522","0",""
"70557","AOSTA- RE DI ROMA","41.882670425844","12.5145111427616","0",""
"70558","PANNONIA- TRACIA","41.880717657874","12.5003995977669","0",""
"70559","DE MATTIAS- PANNONIA","41.8794472222861","12.5019434198281","0",""
"70560","MONZA- TARANTO","41.8847777784909","12.5153022259147","0",""
"70561","SATRICO- EPIRO","41.8778701466887","12.5054561008586","0",""
"70562","SATRICO- ZAMA","41.8764497009595","12.5087215198317","0",""
"70563","CAMPO FARNIA- CIVICO 100","41.8319565418345","12.5758793492641","0",""
"70565","CAMPO FARNIA- PELLARO","41.833379403706","12.5753305095883","0",""
"70566","TORRE PRATOLUNGO- GIOVANNI ARGENTELLA","41.9466286367665","12.6052608773999","0",""
"70567","SAN MARTINO DELLA BATTAGLIA","41.9053858731578","12.5043460534213","0",""
"70568","UNIVERSITA'- MINISTERO AERONAUTICA","41.9027967576256","12.5077470134401","0",""
"70569","POLICLINICO- VIALE UNIVERSITA'","41.9046150975238","12.5106545449459","0",""
"70570","POLICLINICO ","41.9064061441986","12.5095240207589","0",""
"70574","TERME CARACALLA- VALLE CAMENE","41.8806924222351","12.4946161542269","0",""
"70575","PROVINCIE","41.9087094760167","12.5210805762544","0",""
"70577","PROVINCIE- VALERIO MASSIMO","41.9069385475117","12.5213035857523","0",""
"70579","TIBURTINA- VALERIO MASSIMO","41.9061519494827","12.5227894469191","0",""
"70581","TIBURTINA- CROCIATE","41.9078848048462","12.5257117067546","0",""
"70582","LICIA","41.8795061299879","12.5031606522573","0",""
"70583","MACEDONIA- LATINA","41.8734277843671","12.5118561466112","0",""
"70584","GREGOROVIUS","41.871756660148","12.5132538923671","0",""
"70585","TOMMASO DA CELANO- GREGOROVIUS","41.8720469897499","12.5148401139748","0",""
"70586","TOMMASO DA CELANO- DIACONO","41.8703511013344","12.5158767948217","0",""
"70587","CAFFARELLETTA","41.8692770561038","12.5185270073813","0",""
"70588","VILLANI","41.8702856627351","12.5179302542433","0",""
"70589","PLATINA","41.8694116093978","12.5169086124229","0",""
"70590","COPPI","41.870037499796","12.5154095900695","0",""
"70591","MACEDONIA","41.8701781657617","12.51371247006","0",""
"70592","MACEDONIA- GREGOROVIUS","41.871930984016","12.5128106954082","0",""
"70593","NUMANZIA- LATINA","41.8738911967288","12.5118381627603","0",""
"70594","SATRICO- ZAMA","41.8763875400539","12.5091770188636","0",""
"70598","LARGO AMBA ARADAM","41.8826179868013","12.4985354680197","0",""
"70599","CORSO- SANTISSIMI APOSTOLI","41.8977418411656","12.4818405289555","0",""
"70600","LARGO CHIGI","41.9016529794577","12.4810569046545","0",""
"70601","TRITONE- BARBERINI ","41.9032719771357","12.4876805992818","0",""
"70602","RATTO DELLE SABINE","41.9459742325095","12.600995481965","0",""
"70603","VENETO- EMILIA","41.9061040399002","12.4898705425764","0",""
"70604","VENETO- SARDEGNA","41.9085422977506","12.489098803135","0",""
"70610","TEATRO MARCELLO","41.8931011267546","12.4813883295032","0",""
"70611","BOCCA DELLA VERITA'","41.8887728554242","12.4813029444884","0",""
"70612","EMPORIO","41.8826561461004","12.4764772858563","0",""
"70613","BRANCA","41.8802343668463","12.4746348727518","0",""
"70615","ZABAGLIA- GALVANI","41.8769344034402","12.4761178316832","0",""
"70618","MATTEUCCI- BOVE","41.8719628127406","12.4819539511976","0",""
"70619","BENZONI- PIGAFETTA","41.8705191142062","12.484507405497","0",""
"70622","PIAZZA ROMANO","41.8622766884473","12.4850495345765","0",""
"70623","MACINGHI STROZZI- LARGO SETTE CHIESE","41.8602034430867","12.4872779987225","0",""
"70624","MACINGHI STROZZI","41.8594105125389","12.4895835823681","0",""
"70625","BONO CAIROLI","41.8581521275863","12.4892707491378","0",""
"70626","ZOAGLI MAMELI","41.8566140308501","12.4880255952315","0",""
"70630","ZOAGLI MAMELI","41.8560476792223","12.4884667160792","0",""
"70631","STAZIONE ACQUA ACETOSA","41.9329054175635","12.4884804499061","0",""
"70632","SAN NEMESIO- CTO ","41.8586286153409","12.4888716329001","0",""
"70635","PIAZZA ROMANO","41.863277255166","12.4854897946914","0",""
"70637","CIRCONVALLAZIONE OSTIENSE- CAFFARO","41.867367470263","12.4851230505016","0",""
"70638","BENZONI- PIGAFETTA","41.8697037008592","12.4845595174542","0",""
"70639","MATTEUCCI- BOVE","41.8719313830998","12.4828785553824","0",""
"70642","ZABAGLIA","41.8765387424995","12.4766840631393","0",""
"70643","RUBATTINO","41.8801525235485","12.4739292033249","0",""
"70644","CAMPI SPORTIVI","41.9330613266397","12.4890432273131","0",""
"70645","EMPORIO","41.8829855778073","12.4764591934611","0",""
"70646","BOCCA DELLA VERITA'","41.8885081626535","12.4815452141188","0",""
"70647","PALAZZO DELLO SPORT","41.8240132320913","12.4661914042151","0",""
"70649","ARTE- AERONAUTICA","41.8260447979157","12.472704133993","0",""
"70650","EUROPA- ARTE","41.8296407240949","12.473451198504","0",""
"70651","EUROPA- TOLSTOI","41.8311586956119","12.4683004704049","0",""
"70652","BEETHOVEN- EUROPA","41.8322361723893","12.4664208503148","0",""
"70653","BEETHOVEN- DON STURZO","41.8336709817647","12.4671666635241","0",""
"70654","BEETHOVEN- CIVILTA' DEL LAVORO","41.8352778980689","12.4680652022298","0",""
"70656","COLOMBO- AGRICOLTURA","41.8354714710194","12.4722390912452","0",""
"70658","COLOMBO- LAURENTINA","41.8462776867812","12.4796493072678","0",""
"70659","COLOMBO- VEDANA","41.8476738981417","12.4816381267235","0",""
"70660","COLOMBO- FONTANELLATO","41.8489540387016","12.4834040314574","0",""
"70661","COLOMBO- GROTTA PERFETTA","41.8502937536192","12.4852890325869","0",""
"70662","COLOMBO- LEONORI","41.8512648477161","12.4866539137544","0",""
"70663","COLOMBO- ACCADEMIA AGIATI","41.852817836049","12.4888629707728","0",""
"70664","COLOMBO- GEORGOFILI","41.8547031939725","12.4915597572311","0",""
"70665","COLOMBO- GUARNIERI CARDUCCI","41.8562566991885","12.4937444437148","0",""
"70666","COLOMBO- RUFINO","41.8587008939278","12.4972271869907","0",""
"70667","NAVIGATORI","41.8608397050495","12.4986335879167","0",""
"70668","COLOMBO- PADRE SEMERIA","41.864267226824","12.4976221360788","0",""
"70669","PATRASSO","41.7828131302821","12.346640897603","0",""
"70670","COLOMBO- CIRCONVALLAZIONE OSTIENSE","41.8676895666096","12.4966408708785","0",""
"70671","LARGO TERME CARACALLA- PORTA ARDEATINA","41.8737643924372","12.4968025159869","0",""
"70672","TERME CARACALLA","41.8784312079575","12.4956945254155","0",""
"70673","LARGO AMBA ARADAM","41.8830895850021","12.4994920219378","0",""
"70674","AMBA ARADAM- VILLA FONSECA","41.8843741739998","12.501331163449","0",""
"70675","MADRE COLOMBA GABRIEL","41.7807883585634","12.3457726976799","0",""
"70676","MERULANA- LABICANA","41.8905333687218","12.5028515359475","0",""
"70677","MERULANA- BRANCACCIO","41.8939071107868","12.5009554308152","0",""
"70678","SANTA MARIA MAGGIORE","41.8965500100305","12.4994403252763","0",""
"70680","MERULANA- BRANCACCIO","41.8946260123986","12.500389400382","0",""
"70681","MERULANA- MECENATE","41.8930987087619","12.5012183842129","0",""
"70682","MERULANA- LABICANA","41.8898941086888","12.5030394996555","0",""
"70683","P.ZA S. GIOVANNI IN LATERANO (H)","41.8864455091119","12.5038909018388","0",""
"70684","TERME CARACALLA","41.8788275113927","12.4951479723419","0",""
"70685","COLOMBO- MARCO POLO","41.8724756163528","12.4962419708346","0",""
"70687","MADRE COLOMBA GABRIEL","41.7807510947779","12.34717455534","0",""
"70693","COLOMBO- BAVASTRO","41.8686297099122","12.4959312793674","0",""
"70694","NEWTON- CASTELLINA MARITTIMA","41.8520269346041","12.4411707870116","0",""
"70695","COLOMBO- CIRCONVALLAZIONE OSTIENSE","41.8665020114004","12.4963538375669","0",""
"70696","COLOMBO- PADRE SEMERIA","41.8630850801338","12.4973556881434","0",""
"70697","UNIVERSITA'- MINISTERO AERONAUTICA","41.9039432320839","12.5101047297157","0",""
"70698","NAVIGATORI","41.8600204989638","12.4978428612243","0",""
"70699","CASTRO PRETORIO- MONZAMBANO","41.903551487095","12.5071200083213","0",""
"70700","COLOMBO- RUFINO","41.8584510288491","12.4958451821318","0",""
"70701","COLOMBO- GUARNIERI CARDUCCI","41.8554258840501","12.4916783305258","0",""
"70702","SAN MARTINO DELLA BATTAGLIA","41.9057812107994","12.5048008170682","0",""
"70703","COLOMBO- GEORGOFILI","41.8541593173726","12.4898925684223","0",""
"70704","INDIPENDENZA","41.9044272679904","12.502589568724","0",""
"70705","COLOMBO- ACCADEMIA AGIATI","41.8522831936093","12.48731315722","0",""
"70706","COLOMBO- LEONORI","41.8508278422616","12.4853401437318","0",""
"70709","COLOMBO- GROTTA PERFETTA","41.8497379103706","12.4837673909229","0",""
"70710","COLOMBO- LAURENTINA","41.8468958348712","12.4797270308356","0",""
"70711","CECILIA METELLA","41.8497488119942","12.5235715180151","0",""
"70713","MONZA- LA SPEZIA","41.8855177954071","12.5152649585736","0",""
"70714","AOSTA","41.8842229266853","12.514840468389","0",""
"70715","COLOMBO- AGRICOLTURA","41.8363329509995","12.4719354189615","0",""
"70716","AOSTA- RE DI ROMA","41.8826710098125","12.5143314737275","0",""
"70717","MILLEVOI- ARDEATINA","41.8169732898259","12.5209692310653","0",""
"70718","BEETHOVEN- CIVILTA' DEL LAVORO","41.835490643883","12.4680466325211","0",""
"70720","BEETHOVEN- DON STURZO","41.8337675885191","12.4670687788835","0",""
"70722","MILLEVOI- TORRE FARO","41.8175124893615","12.5184903902604","0",""
"70723","MILLEVOI- CIVICO 425","41.820003049819","12.5169618840874","0",""
"70724","STAZIONE TIBURTINA","41.9098348741742","12.5307473856469","0",""
"70725","SOLARIO","41.8380345637209","12.4890784657502","0",""
"70726","BALLARIN- MAROSO","41.8395522219284","12.4921751410402","0",""
"70727","ARTE- AMERICA","41.8285481438946","12.473812011191","0",""
"70728","ARTE- AERONAUTICA","41.8258442340219","12.4724001113137","0",""
"70729","TIBURTINA- VALERIO MASSIMO","41.905881461688","12.522339356126","0",""
"70730","NAIROBI- SANT'EUGENIO ","41.8229421782708","12.4721522639529","0",""
"70731","TIBURTINA- CASTRO LAURENZIANO","41.9038744736142","12.5204252400142","0",""
"70732","DE LOLLIS- VERANO","41.9017487571713","12.517781415521","0",""
"70733","TERMINI","41.9011878759523","12.5003145686578","0",""
"70735","PIAZZALE TIBURTINO","41.8968589070441","12.5113850771031","0",""
"70742","CAVOUR- ANNIBALDI","41.8943078025677","12.4917339447923","0",""
"70743","BALLARIN- CESARINI","41.8363559850681","12.4982239925583","0",""
"70744","CELIO VIBENNA","41.8893276301303","12.4927726909274","0",""
"70745","SAN GREGORIO","41.8881747652366","12.4900756902792","0",""
"70746","CIRCONVALLAZIONE OSTIENSE- COLOMBO","41.8673771739477","12.4954824655054","0",""
"70747","CIRCO MASSIMO (MB)","41.884001028294","12.4884069614236","0",""
"70748","CIRCONVALLAZIONE OSTIENSE- GIULIANI","41.8673950032306","12.4926652032403","0",""
"70749","AVENTINO","41.882778073864","12.4867541434246","0",""
"70751","BALLARIN- GREZAR","41.8344684316444","12.4969791522765","0",""
"70752","AVENTINO- ALBANIA","41.8812214608129","12.4847522332553","0",""
"70753","MASSAIA- CAPISTRANO","41.8636165424397","12.492542546713","0",""
"70754","PORTA SAN PAOLO","41.8777382205463","12.4817909733888","0",""
"70755","MASSAIA- SPINOLA","41.8623091563846","12.4931665097729","0",""
"70756","STAZIONE TRASTEVERE","41.8730879161822","12.4658615211486","0",""
"70757","VIA OSTIENSE ","41.8753058714833","12.4806585060678","0",""
"70758","STAZIONE TRASTEVERE","41.8728137698141","12.4654777396154","0",""
"70761","COSTANTINO- VILLA LUCINA","41.8573815442488","12.4840709356336","0",""
"70762","COSTANTINO- LEONARDO DA VINCI","41.8577922273667","12.48127930007","0",""
"70763","VIGNA MURATA- CORAZZIERI","41.8263389245187","12.4858356474777","0",""
"70764","LARGO LEONARDO DA VINCI","41.8568041835692","12.4810695319272","0",""
"70765","COSTANTINO- LEONARDO DA VINCI","41.8576424020179","12.4813949895761","0",""
"70766","COSTANTINO- VILLA LUCINA","41.8572347022294","12.484423352451","0",""
"70767","VILLA LUCINA- LARGO DELLE SETTE CHIESE","41.860462530209","12.486685562122","0",""
"70769","MASSAIA- ODERICO DA PORDENONE","41.8608199492639","12.4939265582806","0",""
"70770","MASSAIA- SPINOLA","41.8622706538503","12.4933568646609","0",""
"70771","MASSAIA- CAPISTRANO","41.8641286284267","12.4923419859942","0",""
"70773","CIRCONVALLAZIONE OSTIENSE- GIULIANI","41.8669750659625","12.4925341406054","0",""
"70774","VIGNA MURATA ","41.8274146801699","12.4811339194457","0",""
"70775","PIAZZA SAN GIOVANNI IN LATERANO ","41.8864130254977","12.5042222289862","0",""
"70777","PIAZZA VENEZIA","41.8949087682441","12.4818066420115","0",""
"70780","CARUCCI","41.7968638574915","12.4890535193912","0",""
"70782","SANTA PRISCA","41.8812787741038","12.4840011527316","0",""
"70783","PONZIO FLAMINIO","41.8791989946364","12.4855840445334","0",""
"70784","LEON BATTISTA ALBERTI","41.878193356313","12.4879029330162","0",""
"70787","CAVE ARDEATINE ","41.8755471710108","12.4827250842403","0",""
"70788","STAZIONE OSTIENSE ","41.8731322567473","12.4844574844632","0",""
"70790","MARCO POLO- BRICHETTI","41.8728626121996","12.4888179187519","0",""
"70791","MARCO POLO- RONCINOTTO","41.871648180921","12.4921230644598","0",""
"70794","NEWTON- ALBERESE","41.8481347288756","12.4421580684015","0",""
"70795","CASALE DE MERODE- ANNUNZIATELLA","41.857502460394","12.5038766896514","0",""
"70796","ANNUNZIATELLA- MEROPIA","41.8546780418421","12.5057088962104","0",""
"70797","SARTORIO","41.8534350402122","12.5057030105983","0",""
"70798","PIAZZA LANTE","41.8520578975264","12.5029132129489","0",""
"70800","ANNUNZIATELLA- MEROPIA","41.8554038198869","12.5056919913169","0",""
"70804","VIGNA MURATA- CORAZZIERI","41.8255948346025","12.4867982289031","0",""
"70806","RHO","41.8620900356924","12.4893399371085","0",""
"70807","DE NOBILI","41.8641887382289","12.491143055658","0",""
"70808","MASSAIA","41.8652888070037","12.4914825091294","0",""
"70810","VIA OSTIENSE- MATTEUCCI","41.8731487568237","12.480408981854","0",""
"70811","VIA OSTIENSE ","41.8755062637985","12.4808158145841","0",""
"70812","PORTA SAN PAOLO","41.8777679307145","12.4823473652405","0",""
"70813","AVENTINO- ALBANIA","41.8806893564268","12.4847586522499","0",""
"70814","AVENTINO","41.8816550510014","12.4860247124214","0",""
"70815","CIRCO MASSIMO ","41.8831508776214","12.4879352002251","0",""
"70816","CELIO VIBENNA","41.8890690510352","12.492700263244","0",""
"70817","CAVOUR- RICCI","41.8937571823841","12.4900586183747","0",""
"70818","CAVOUR- ANNIBALDI","41.8941922395808","12.4917330761519","0",""
"70821","SERAFICO- REGISTRI IMMOBILIARI","41.8303735319873","12.4890358617425","0",""
"70822","PIAZZALE TIBURTINO","41.8968741966941","12.5115918111452","0",""
"70823","SERAFICO","41.8317091366266","12.4917716182763","0",""
"70824","TIBURTINA- CASTRO LAURENZIANO","41.9039936480206","12.5206670296298","0",""
"70825","GREZAR- OSSOLA","41.835412944177","12.494669410543","0",""
"70826","LARGO PRENESTE","41.8920274152936","12.5417838989089","0",""
"70828","MARCO POLO- RONCINOTTO","41.8724086921748","12.4904870371107","0",""
"70829","MARCO POLO- BRICHETTI","41.8732432573127","12.4886832551238","0",""
"70831","PRENESTINA- CONTI","41.8923923288361","12.5398886327942","0",""
"70832","GREZAR- PICCHI","41.8372090340356","12.4917237879846","0",""
"70834","CAVE ARDEATINE ","41.8753538045308","12.4830493496466","0",""
"70836","PRENESTINA- GATTAMELATA","41.8924268333982","12.5364589891272","0",""
"70838","LEON BATTISTA ALBERTI","41.8784612972498","12.4878008494672","0",""
"70839","BERNINI","41.8783966017124","12.4859132296898","0",""
"70840","SAN SABA- PONZIO FLAMINIO","41.878765779902","12.4850651890646","0",""
"70841","SAN SABA- AVENTINO","41.8802037912804","12.4846940507372","0",""
"70842","NEWTON- PAPA LEONE","41.8462356491741","12.4437314601758","0",""
"70844","NEWTON- PAPA LEONE","41.846410955887","12.4438555893911","0",""
"70846","PRENESTINA- GIOVENALE","41.8920313510472","12.5315119245904","0",""
"70847","LARGO FIORENTINI","41.8987525393021","12.4648350178096","0",""
"70848","CASALETTO- VILLA ZINGONE","41.8652628088661","12.4377936294107","0",""
"70849","PRENESTINA- OFFICINE ATAC","41.891086715805","12.5247683545892","0",""
"70850","PRENESTINA- CABALLINI","41.8912610429897","12.5217373772791","0",""
"70851","PIAZZA DI PORTA MAGGIORE","41.8913648219014","12.5143947493284","0",""
"70852","PIAZZALE FLAMINIO","41.9116336518261","12.4749301272585","0",""
"70853","GIOACCHINO BELLI","41.8900011474681","12.4744135950468","0",""
"70854","SAN PAOLO DEL BRASILE","41.9100390337591","12.4876233003025","0",""
"70855","VENETO- SARDEGNA","41.9082071218428","12.4890575093081","0",""
"70856","VENETO- EMILIA","41.9058303776303","12.4885972248634","0",""
"70858","VENETO- BARBERINI ","41.9043581250636","12.4884441091218","0",""
"70859","TRITONE- BARBERINI ","41.9033033736779","12.4874077408171","0",""
"70860","SCALO SETTEBAGNI- LUCARIE","42.0093943041848","12.5204630015588","0",""
"70862","MANZONI ","41.8902560820708","12.5060217642296","0",""
"70863","LABICANA- MERULANA","41.8892198426119","12.5027082596132","0",""
"70864","LABICANA","41.8897683154339","12.4986332215521","0",""
"70865","PIAZZA DEL COLOSSEO- SALVI","41.8897015221885","12.4939433431078","0",""
"70866","PARCO CELIO","41.8873159382404","12.4910996171218","0",""
"70868","SCALO SETTEBAGNI","42.0066897936501","12.5203754875437","0",""
"70869","VICOLO LUCARIE- SANT'ANTONIO DI PADOVA","42.0049681858306","12.5222544467509","0",""
"70870","LUCARIE- CAPOLIVERI","42.0069516026684","12.5226559048364","0",""
"70871","MARMORATA- CAIO CESTIO","41.8774908208687","12.4801675348001","0",""
"70873","MARMORATA- GALVANI","41.8791145514552","12.4789061685672","0",""
"70874","ISOLE CURZOLANE- MONTE BOVE","41.9496734424502","12.5280084348959","0",""
"70875","MARMORATA- VANVITELLI","41.88101746846","12.4775974187585","0",""
"70876","MARMORATA- CAIO CESTIO","41.8775305349861","12.4802906656275","0",""
"70877","EMPORIO","41.8827726481605","12.4760256694112","0",""
"70878","PORTA PORTESE","41.8839190071718","12.4743495867573","0",""
"70880","EMPORIO","41.8830554461177","12.4766058788295","0",""
"70886","VENETO- BARBERINI ","41.9045145353815","12.4885131242044","0",""
"70888","GIUSEPPE VANNI","41.8815705599239","12.3595620043283","0",""
"70898","TIZIANO- CARPI","41.926483091722","12.4707978960694","0",""
"70899","PESCACCIO- CENTRO COMMERCIALE","41.8704636392458","12.3782422122064","0",""
"70900","NERVI- PALAZZO SPORT","41.8240714388663","12.4659723840416","0",""
"70903","TECNICA- CICLISMO","41.8274112669219","12.4593430802707","0",""
"70905","TECNICA- UMANESIMO","41.8289405909093","12.460129951015","0",""
"70906","PESCACCIO- BRAVA","41.8726090682747","12.3798700774066","0",""
"70907","BRAVA- PESCACCIO","41.8721919890877","12.3808975277204","0",""
"70908","AMERICA- BEETHOVEN","41.8306036755401","12.4648039110923","0",""
"70909","PESCACCIO- BRAVA","41.8725370066591","12.3791257392195","0",""
"70911","EUROPA- COLOMBO","41.8303454994801","12.4706006307148","0",""
"70913","PESCACCIO- CENTRO COMMERCIALE","41.8698472525645","12.3781200701683","0",""
"70914","ARTE- ARCHIVIO DI STATO","41.8295528679178","12.4745335513207","0",""
"70916","MUSEO CIVILTA' ROMANA","41.8316114232097","12.4754255504941","0",""
"70918","KENNEDY- MINISTERO SANITA'","41.834788281702","12.4740964093914","0",""
"70920","INDUNO","41.885049432025","12.4714687921944","0",""
"70921","PORTA PORTESE","41.8838137821669","12.4743151687221","0",""
"70922","CASALE LUMBROSO- NEPER","41.8644854421542","12.3593137928732","0",""
"70923","MARMORATA- VANVITELLI","41.8807470765243","12.4775921036839","0",""
"70924","MARCONI- PINCHERLE","41.8528299676926","12.4732353660079","0",""
"70925","MARMORATA- GALVANI","41.8788092355557","12.4789394498807","0",""
"70926","MARCONI- BORTOLOTTI","41.8553486482353","12.4720711418114","0",""
"70927","PORTA SAN PAOLO","41.8771256266888","12.4816462896297","0",""
"70928","MARCONI- EDISON","41.8577471198113","12.4713423429838","0",""
"70929","DISCARICA MALAGROTTA","41.8543244128945","12.3435937505648","0",""
"70930","MARCONI- FERMI","41.8650146346828","12.4692482912271","0",""
"70932","ALBANIA","41.8803921545465","12.4842309661118","0",""
"70933","PIAZZA DELLA RADIO","41.8701379869042","12.4677971561682","0",""
"70934","ORTI DI CESARE","41.87361261711","12.4661364749657","0",""
"70936","DISCARICA MALAGROTTA","41.8550525122556","12.3437292327006","0",""
"70938","VIA CASALE LUMBROSO- NEPER","41.8647246328952","12.3597286266834","0",""
"70939","LUNGOTEVERE ALBERTESCHI","41.8893915361644","12.4774057521185","0",""
"70940","PIAZZA DEL COLOSSEO","41.8899271816774","12.4941978434931","0",""
"70942","SENORBI- IRGOLI","41.8381597708758","12.355911143634","0",""
"70943","MANZONI- MERULANA","41.8896166596121","12.5043748720912","0",""
"70944","SENORBI- ARZANA","41.8353264090993","12.3566480191711","0",""
"70945","SENORBI- NARCAO","41.8333468361766","12.3580210369256","0",""
"70947","SENORBI- ARDARA","41.8297086514872","12.3600551569752","0",""
"70948","SENORBI- MUROS","41.8316470983878","12.3599549842039","0",""
"70949","SENORBI- NARCAO","41.8336555056883","12.3577109840212","0",""
"70950","SENORBI- ARZANA","41.8363517575474","12.3569821236676","0",""
"70951","ORTI DI CESARE","41.8729860119716","12.466682992798","0",""
"70952","SENORBI- IRGOLI","41.8383218600266","12.3559104883163","0",""
"70953","DE BOSIS","41.9326440412023","12.4600516802422","0",""
"70955","MARCONI- MEUCCI","41.8660807393479","12.4685770966082","0",""
"70956","PRENESTINA- CABALLINI","41.8912676393768","12.5201019526034","0",""
"70957","PRENESTINA- OFFICINE ATAC","41.8910220944634","12.5252659584079","0",""
"70958","MORATELLE","41.8345829578361","12.3453109212974","0",""
"70959","PRENESTINA- GIOVENALE","41.8919087390002","12.531429565045","0",""
"70960","MORATELLE","41.83441022553","12.3454354737736","0",""
"70961","MARCONI- RIGHI","41.8619053580129","12.4697259527375","0",""
"70963","MARCONI- BORTOLOTTI","41.855682804305","12.4715389101662","0",""
"70964","MARCONI- PINCHERLE","41.8519742893138","12.4732381782666","0",""
"70965","MARCONI- GIBILMANNA","41.8466612941509","12.4756701411732","0",""
"70966","KANT- BERTERO","41.9337916725935","12.5551196436747","0",""
"70970","PRENESTINA- GATTAMELATA","41.8923352905716","12.5372290874249","0",""
"70972","FRANTOIO- VANGA","41.9115020704746","12.5619703460678","0",""
"70974","PALAZZO CONGRESSI","41.8334965767426","12.4740027234843","0",""
"70976","MUSEO CIVILTA' ROMANA","41.8324020887524","12.4759965518833","0",""
"70978","AMERICA- BEETHOVEN","41.8306679964338","12.4648775769366","0",""
"70979","AMERICA- TUPINI","41.8314787840108","12.4622354985396","0",""
"70980","TECNICA- UMANESIMO","41.8290408587521","12.4600224322602","0",""
"70981","TECNICA- CICLISMO","41.8273460222079","12.4591273705488","0",""
"70984","GREGORIO SETTIMO- PIO UNDICESIMO","41.8937314218829","12.4366807350752","0",""
"70985","GREGORIO SETTIMO- ZUCCHI","41.8937400866693","12.4335224277614","0",""
"70986","GREGORIO SETTIMO- VILLA CARPEGNA","41.8947342878134","12.4301644005928","0",""
"70987","TORRE ROSSA- COLLEGIO SAN PAOLO","41.8928883485883","12.4277794864847","0",""
"70988","TORRE ROSSA- DOMUS PACIS","41.8917177492429","12.4269827790989","0",""
"70989","AURELIA ANTICA- TORRE ROSSA","41.8902927594811","12.425926339608","0",""
"70990","AURELIA ANTICA- DON GUANELLA","41.889220444505","12.4238915787008","0",""
"70991","BRAVETTA- FONTANILE ARENATO","41.8874807376631","12.4214009880417","0",""
"70992","BRAVETTA- PISANA","41.8857588689458","12.422245335423","0",""
"70993","BRAVETTA- DEI CAPASSO","41.8833856765804","12.4242562742132","0",""
"70994","BRAVETTA- GUIDI","41.8808260436707","12.4260944583355","0",""
"70995","BRAVETTA- CONSOLATA","41.877552395138","12.426293388053","0",""
"70996","BUON PASTORE","41.8763346076488","12.4258024397379","0",""
"70997","BRAVETTA- ARCELLI","41.8750193364582","12.4241779277519","0",""
"70998","BRAVETTA- SCROVEGNI","41.8722067525713","12.422449804831","0",""
"70999","BRAVETTA- MARCELLINI","41.8697740477292","12.4223875054863","0",""
"71000","BRAVETTA- SCALIGERI","41.8685485480982","12.4227685482518","0",""
"71002","FORTE BRAVETTA","41.8666176979736","12.4233298818738","0",""
"71003","CASETTA MATTEI- CONTE","41.8647357614527","12.4226676020182","0",""
"71006","CASETTA MATTEI- CARAFA","41.8620392068268","12.420397734023","0",""
"71007","PRENESTINA- TOR DE' SCHIAVI","41.8946739991656","12.5579175471119","0",""
"71008","CASETTA MATTEI- CANTELMO","41.8610907841382","12.4197235784768","0",""
"71009","CASETTA MATTEI- DELLA BITTA","41.8586067319749","12.4193883845269","0",""
"71011","PRENESTINA- OLEVANO ROMANO","41.8943351376357","12.5552835103053","0",""
"71012","POGGIO VERDE- CASETTA MATTEI","41.8570557824402","12.4192616490369","0",""
"71013","POGGIO VERDE- MAZZACURATI","41.856186272196","12.4169596662111","0",""
"71014","PRENESTINA- IRPINIA","41.8938575086944","12.5512975868307","0",""
"71015","PRENESTINA- TELESE","41.8933766204333","12.5473159855966","0",""
"71016","PRENESTINA- ACQUA BULLICANTE","41.8927917672058","12.5423521036889","0",""
"71017","POGGIO VERDE- FEDI","41.853509842603","12.4134049317622","0",""
"71018","POGGIO VERDE- TABACCHI","41.851841059982","12.4127474257222","0",""
"71019","POGGIO VERDE- TRENTACOSTE","41.8500733016615","12.4120198090608","0",""
"71020","POGGIO VERDE- QUADRELLI","41.8484234223933","12.4113375903338","0",""
"71021","REDUZZI","41.8467542521112","12.4106561830135","0",""
"71022","MAZZACURATI- SAMPIERI","41.852131337194","12.4142520653769","0",""
"71023","MAZZACURATI","41.8465285521306","12.4113286548343","0",""
"71024","POGGIO VERDE- MAZZACURATI","41.8561714965476","12.4173384459217","0",""
"71025","POGGIO VERDE- CASETTA MATTEI","41.8566972129583","12.4196416343","0",""
"71026","PIAZZA DI PORTA MAGGIORE","41.891370663844","12.5146645080952","0",""
"71027","CASETTA MATTEI- DELLA BITTA","41.8582811443169","12.4196074795864","0",""
"71028","CASETTA MATTEI- CANTELMO","41.8608576999211","12.4198074140627","0",""
"71029","CASETTA MATTEI- CARAFA","41.8624594935949","12.4210344556228","0",""
"71030","PRINCIPE EUGENIO- MANZONI","41.8935184996905","12.5088812268181","0",""
"71031","CASETTA MATTEI- CONTE","41.8650688942528","12.4231440444984","0",""
"71033","PIAZZA VITTORIO EMANUELE ","41.8950910244818","12.5050548720984","0",""
"71034","BRAVETTA- MARCELLINI","41.8703634061821","12.4227769330452","0",""
"71035","TORRE DEL FISCALE","41.85640667052","12.5409006125974","0",""
"71036","BRAVETTA- SCROVEGNI","41.8724986659307","12.4226157961222","0",""
"71037","BRAVETTA- ARCELLI","41.8752048436772","12.4247392240563","0",""
"71039","BUON PASTORE","41.8764146165713","12.4259968471684","0",""
"71040","NAPOLEONE TERZO","41.8979159007058","12.5002422097335","0",""
"71041","BRAVETTA- SERAFINI","41.8786298167137","12.4267899886152","0",""
"71042","BRAVETTA- GUIDI","41.8817401561285","12.4256637461035","0",""
"71043","BRAVETTA- FELTRESCHI","41.8840490846836","12.4239721647215","0",""
"71045","MONTE ALBINO","41.8580476169789","12.5383399229943","0",""
"71046","BRAVETTA- FONTANILE ARENATO","41.8875891872215","12.4216720769632","0",""
"71047","AURELIA ANTICA- DON GUANELLA","41.8888073240673","12.4233007491479","0",""
"71048","AURELIA ANTICA- TORRE ROSSA","41.8898091803781","12.4254058125806","0",""
"71049","FARINI","41.8981697433111","12.4995162252866","0",""
"71050","TORRE ROSSA- DOMUS PACIS","41.8920579346681","12.4273740971356","0",""
"71051","TORRE ROSSA- COLLEGIO SAN PAOLO","41.8932215492948","12.4281807385568","0",""
"71052","TORRE DEL FISCALE","41.8557104542382","12.5401412816592","0",""
"71054","MONTE ALBINO","41.8578013289568","12.5378277868643","0",""
"71056","GREGORIO SETTIMO- ZUCCHI","41.8934577680504","12.4342033729373","0",""
"71057","GREGORIO SETTIMO- PIO UNDICESIMO","41.8938386272011","12.4370420812046","0",""
"71059","GREGORIO SETTIMO- SATOLLI","41.8951296384966","12.438999743212","0",""
"71060","PRINCIPE EUGENIO- MANZONI","41.893227955066","12.5094830007187","0",""
"71061","GREGORIO SETTIMO- DI PIETRO","41.8963043833865","12.4422767005287","0",""
"71062","GREGORIO SETTIMO- SAN DAMASO","41.8956607745815","12.4449015263545","0",""
"71063","PIAZZA DI PORTA MAGGIORE","41.8917636447436","12.5145651955121","0",""
"71064","LABICANO- PORTA MAGGIORE","41.8914561187917","12.5158133276998","0",""
"71065","VIOLA","41.8215896916028","12.409257879399","0",""
"71066","VIOLA- VENEZIANI","41.8221010121306","12.4115639430523","0",""
"71067","VIOLA- VENEZIANI","41.8223515231437","12.4114906381784","0",""
"71069","PRENESTINA- PIAZZALE PRENESTINO","41.8912871760291","12.5278536299591","0",""
"71070","FABRIANO","41.9405099913824","12.5841105347387","0",""
"71071","FABRIANO- PERGOLA","41.9390844464526","12.5825256078129","0",""
"71072","CASALE SAN BASILIO- FABRIANO","41.9369659455484","12.5808149219388","0",""
"71073","PRENESTINA- LARGO PRENESTE","41.8923322809221","12.5401123104133","0",""
"71074","CASALE SAN BASILIO- TIBURTINA","41.9340941193691","12.5835142230543","0",""
"71075","PRENESTINA- ACQUA BULLICANTE","41.8927674543184","12.5432659395554","0",""
"71077","PRENESTINA- TELESE","41.8932247220498","12.5478610045229","0",""
"71078","TIBURTINA- TOR CERVARA","41.9327175535975","12.5860591764173","0",""
"71079","PRENESTINA- IRPINIA","41.8938082928802","12.5517767830186","0",""
"71081","TIBURTINA- NASINI","41.928575225742","12.5764677738289","0",""
"71082","TIBURTINA- REBIBBIA ","41.9261410324325","12.5737851065724","0",""
"71083","STAZIONE METRO CIPRO","41.9070818634952","12.4481448479254","0",""
"71085","TIBURTINA- SANTA MARIA DEL SOCCORSO ","41.9152120758171","12.5608286554908","0",""
"71086","PRENESTINA- OLEVANO ROMANO","41.8942775826436","12.5558863515705","0",""
"71087","TIBURTINA- CARRI ARMATI","41.9138854140945","12.557645845722","0",""
"71088","TIBURTINA- MONTI TIBURTINI","41.9127090842317","12.5544047844242","0",""
"71089","TIBURTINA- CESANA","41.9112157547833","12.5502578972739","0",""
"71090","PRENESTINA- TOR DE' SCHIAVI","41.8948022305958","12.5597915947148","0",""
"71091","TIBURTINA- DIEGO ANGELI","41.9102341583751","12.5481102260224","0",""
"71092","STAZIONE METRO VALLE AURELIA ","41.9028910506707","12.4399768657257","0",""
"71100","ORIOLO ROMANO","41.961100800207","12.4609059915164","0",""
"71104","CLAUDIA- COLOSSEO","41.8881010697786","12.4940792532014","0",""
"71105","ORIOLO ROMANO- CHIANCIANO","41.9592930420723","12.4585247737297","0",""
"71106","NAVICELLA- VILLA CELIMONTANA","41.8842339903319","12.4960698660343","0",""
"71107","CLAUDIA- CELIO ","41.8863917721543","12.4949529284321","0",""
"71108","TIBURTINA- VERANO","41.90802663488","12.5294533520438","0",""
"71110","PIAZZA SAN GIOVANNI IN LATERANO ","41.8866553524821","12.5045031280652","0",""
"71111","DUE PONTI- SIGNA","41.964766383297","12.4554703138929","0",""
"71112","TIBURTINA- GALLA PLACIDIA","41.9085858130346","12.543423318538","0",""
"71113","TIBURTINA- BARGELLINI","41.9093858019416","12.5470142352067","0",""
"71114","TIBURTINA- DIEGO ANGELI","41.9103874465354","12.5490887727549","0",""
"71115","TIBURTINA- CESANA","41.9111380912553","12.5509422618054","0",""
"71116","TIBURTINA- PIETRALATA","41.9132163056238","12.556527615","0",""
"71119","DUE PONTI- SIGNA","41.9650009731322","12.4552242478896","0",""
"71120","RIPA TEATINA ","41.9246948909287","12.5728113896731","0",""
"71121","ORIOLO ROMANO- CHIANCIANO","41.9593142291455","12.4590344843392","0",""
"71122","TIBURTINA- LANCIANO","41.9271328981845","12.5751176064525","0",""
"71123","TIBURTINA- NASINI","41.9294206466356","12.577262045433","0",""
"71124","TIBURTINA- LINO DA PARMA","41.9321147052896","12.5817219875318","0",""
"71126","ORIOLO ROMANO","41.9614284068471","12.4613852735399","0",""
"71127","MOCENIGO","41.9088857984402","12.4512514847861","0",""
"71129","MORROVALLE- OSIMO","41.9369966434474","12.5831265709255","0",""
"71131","MORROVALLE- SIROLO","41.9391144605461","12.5855053955506","0",""
"71132","BOCCEA- CANDELO","41.9220419056061","12.3730768349376","0",""
"71133","BOCCEA- CANDELO","41.9217373892657","12.3751250725145","0",""
"71134","PORTONACCIO- SILVIO LATINO","41.8956838387056","12.5416476500519","0",""
"71135","PORTONACCIO- ARIMONDI","41.8976265357181","12.5399543258398","0",""
"71136","GREGORIO SETTIMO- LEONE TREDICESIMO","41.8935079475181","12.4354459037739","0",""
"71138","CASAL BERTONE- POLLIO","41.8975083871157","12.5337123363205","0",""
"71140","CASAL BERTONE- POLLIO","41.8972751013323","12.5336017680425","0",""
"71143","SACCO","41.9168339689575","12.5602781733616","0",""
"71144","TONDI","41.9173091547584","12.5595700422854","0",""
"71145","GREGORIO SETTIMO- ZUCCHI","41.8940896803941","12.4328454890724","0",""
"71146","GREGORIO SETTIMO- VILLA CARPEGNA","41.8948383943462","12.430486150852","0",""
"71147","PIETRALATA- MICHELOTTI","41.9156023939483","12.5557029638236","0",""
"71148","PIETRALATA- POMONA","41.9174817321527","12.5553133691865","0",""
"71149","PIETRALATA- SILVANO","41.9187269548497","12.5539055796561","0",""
"71150","PIETRALATA- MESSI D'ORO","41.9193825346646","12.5521088016788","0",""
"71151","PIETRALATA- CASALE PIETRALATA","41.9202338363394","12.5479101164117","0",""
"71152","DURANTINI- PIETRALATA","41.9203678346679","12.5463597374307","0",""
"71153","VALLE AURELIA- GANDINO","41.9021719279699","12.4374591232007","0",""
"71155","VALLE AURELIA ","41.9030283964258","12.4419413957266","0",""
"71156","OSTIENSE- STAZIONE OSTIA ANTICA","41.7567924565611","12.3015451194258","0",""
"71159","VIA OSTIENSE- SOTTOVIA MORELLI","41.7798998019122","12.3519485913552","0",""
"71160","PORTONACCIO- SILVIO LATINO","41.8955654760787","12.5412877644159","0",""
"71162","BELTRAMELLI","41.9101818019057","12.5384284557567","0",""
"71165","DURANTINI- CALZA","41.9137799898356","12.5419024321998","0",""
"71166","DURANTINI- CAVE DI PIETRALATA","41.9159515271372","12.5419010665386","0",""
"71167","DURANTINI- MONTI TIBURTINI","41.917328885239","12.5436026553241","0",""
"71168","DURANTINI- FERONIA","41.9192280909258","12.5455729813387","0",""
"71169","DURANTINI- PIETRALATA","41.9204570712527","12.5466111169719","0",""
"71170","PIETRALATA- CASALE PIETRALATA","41.9198258227077","12.5484681748973","0",""
"71171","NAVICELLA- VILLA CELIMONTANA","41.8846232650692","12.496079054347","0",""
"71172","FLORA","41.9190297572505","12.5511579442849","0",""
"71173","CLAUDIA- CELIO ","41.8868092007327","12.49493781024","0",""
"71174","MARICA","41.9175394869611","12.5507995068292","0",""
"71175","CLAUDIA- COLOSSEO","41.888618463261","12.4940257471593","0",""
"71176","POMONA","41.9165787319623","12.5533828506304","0",""
"71177","CERCHI- PORTA CAPENA","41.8853555834332","12.4884736679127","0",""
"71178","OSTIENSE- STAZIONE VITINIA","41.7956648158375","12.4036115260009","0",""
"71180","MICHELOTTI ","41.9152362433868","12.5562280643296","0",""
"71183","TONDI- MONTALBANI","41.9177985974563","12.5581409142025","0",""
"71184","VENTI SETTEMBRE- MINISTERO FINANZE","41.905849971157","12.496544851113","0",""
"71185","VOLTURNO- CERNAIA","41.904626113911","12.4994202347017","0",""
"71186","VOLTURNO","41.9037114329873","12.5005225235259","0",""
"71187","AUGUSTO IMPERATORE","41.9056754354316","12.4771011896421","0",""
"71188","BIROLLI- COLLATINA","41.9047143270286","12.5988340631651","0",""
"71189","COLLATINA- TOR SAPIENZA ","41.9048049653913","12.5957911914551","0",""
"71190","VEGA- STAZIONE STELLA POLARE","41.7267681925305","12.2944812606","0",""
"71191","TOR SAPIENZA- CECIONI","41.9023328502697","12.5901822132615","0",""
"71192","TOR SAPIENZA- MICHETTI","41.9007711133667","12.5905744953386","0",""
"71193","TOR SAPIENZA- RUCELLAI","41.8975807710367","12.591383799086","0",""
"71194","TOR SAPIENZA- JORIS","41.8993186069129","12.5909432532611","0",""
"71195","PRENESTINA- TOR TRE TESTE","41.8941916407806","12.5917293347379","0",""
"71196","PRENESTINA- STADERINI","41.8939221070954","12.5863612216344","0",""
"71197","PRENESTINA- CANDIANI","41.893696182506","12.5839740388379","0",""
"71198","PRENESTINA- MANFREDONIA","41.8944942286287","12.5774044461139","0",""
"71199","PRENESTINA- LARICI","41.8951914198071","12.5741978549942","0",""
"71200","PRENESTINA- VALENTE","41.8951917725901","12.565247743239","0",""
"71201","PRENESTINA- COCCONI","41.8951013028084","12.56243349506","0",""
"71202","PRENESTINA- TOR DE' SCHIAVI","41.89472597783","12.5572227058427","0",""
"71203","PRENESTINA- OLEVANO ROMANO","41.8943913105569","12.5544941973427","0",""
"71204","NOCERA UMBRA- TUSCOLANA","41.8768420160762","12.5266947923932","0",""
"71205","PRENESTINA- IRPINIA","41.8938287341182","12.5501815801581","0",""
"71206","PRENESTINA- TELESE","41.8933370755326","12.5462123957219","0",""
"71207","NOCERA UMBRA- NARNI","41.8784585737502","12.5296221524972","0",""
"71208","NOCERA UMBRA- OTRICOLI","41.8791156673343","12.5308621458844","0",""
"71210","MONTECASTRILLI","41.8769521930505","12.5323155839218","0",""
"71211","NOCERA UMBRA- OTRICOLI","41.8794850865951","12.5306611306925","0",""
"71212","VIA OSTIENSE- STAZIONE TOR DI VALLE ","41.8196649634619","12.43644810509","0",""
"71213","NOCERA UMBRA- NARNI","41.8786171718302","12.5290819444632","0",""
"71214","PRENESTINA- OLEVANO ROMANO","41.8941271491154","12.5555236669565","0",""
"71215","NOCERA UMBRA- TUSCOLANA","41.8771560278207","12.5263886515493","0",""
"71216","PRENESTINA- TOR DE' SCHIAVI","41.8947068227061","12.5599192606449","0",""
"71217","PRENESTINA- COCCONI","41.894850982421","12.5635749406727","0",""
"71218","TARANTO- LUGO","41.8833504022763","12.5203016530751","0",""
"71219","PRENESTINA- LARICI","41.8949258946193","12.5739723308234","0",""
"71220","PRENESTINA- MANFREDONIA","41.894286830999","12.5779751330231","0",""
"71221","PRENESTINA- CANDIANI","41.893653237215","12.5849249398025","0",""
"71223","PORTA SAN GIOVANNI ","41.8863282036539","12.5089921046911","0",""
"71224","PRENESTINA- TOR TRE TESTE","41.8940292515833","12.5897026321769","0",""
"71225","TOR SAPIENZA- RUCELLAI","41.896683765002","12.5918188890893","0",""
"71226","TOR SAPIENZA- JORIS","41.8988113608628","12.5912458895684","0",""
"71227","TOR SAPIENZA- MICHETTI","41.9003465093039","12.5908435157384","0",""
"71229","TOR SAPIENZA- DE CUPIS","41.90359455362","12.5899883410467","0",""
"71230","COLLATINA- TOR SAPIENZA","41.9041790244122","12.592884291243","0",""
"71232","BIROLLI- COLLATINA","41.9044812349539","12.5987126026568","0",""
"71234","FABBRI","41.9436274400492","12.5648426930512","0",""
"71238","CASTANI- FAGGI","41.8836033506862","12.5669253809784","0",""
"71239","FRASSINI","41.8849085385774","12.5682916218533","0",""
"71240","BUAZZELLI","41.9435141015602","12.5685014352221","0",""
"71241","CASTANI- GELSI","41.8888712424548","12.5653274372352","0",""
"71242","PARLATORE","41.8905003347878","12.5648538198624","0",""
"71244","COCCONI","41.8939567148726","12.5635065281823","0",""
"71245","PRENESTINA- VALENTE","41.8949557912727","12.5674974837669","0",""
"71246","TOGLIATTI/PRENESTINA","41.8941792300695","12.5744119079503","0",""
"71247","BELLE ARTI","41.9189002023956","12.4741831525215","0",""
"71248","TOGLIATTI- ABELIE","41.8924668874396","12.5741625857201","0",""
"71249","TOGLIATTI- GELSI","41.8906130993731","12.5738843605696","0",""
"71250","MOLFETTA","41.8900716261552","12.5757268335886","0",""
"71251","FLAMINIA- TOR DI QUINTO","41.9520622083485","12.4849605795383","0",""
"71253","ALESSANDRINO- INCORONATA","41.8878366580803","12.5765237296333","0",""
"71254","ALDROVANDI","41.9181514071256","12.4846390656233","0",""
"71255","ALESSANDRINO- PERGOLATO","41.8843907674589","12.5769125905799","0",""
"71257","ALESSANDRINO- SIMONE DA GENOVA","41.8826841613894","12.5771370111117","0",""
"71258","ALESSANDRINO- MELI","41.88068476335","12.5774410113564","0",""
"71259","ROSSINI","41.9205389533451","12.491701760917","0",""
"71260","ALESSANDRINO- OLMI","41.8784884072555","12.5781093416248","0",""
"71261","ALESSANDRINO- OLEANDRI","41.8751291388285","12.5793568981171","0",""
"71262","LIEGI- UNGHERIA","41.9217616021565","12.4940775377213","0",""
"71264","ALESSANDRINO- METRO C","41.8713116568391","12.5797220926989","0",""
"71265","BUENOS AIRES","41.9177245306908","12.5005708768431","0",""
"71266","CASILINA- GRANO","41.8720582724821","12.5767122282031","0",""
"71267","VIALE REGINA MARGHERITA- NIZZA","41.9147296853313","12.5043128654632","0",""
"71270","VIALE REGINA MARGHERITA- NOMENTANA","41.9124920423499","12.5071074258864","0",""
"71272","REGINA MARGHERITA- GALENO","41.9108780143819","12.509089674013","0",""
"71274","VIALE REGINA MARGHERITA- MORGAGNI","41.9099592589061","12.510244249685","0",""
"71275","POLICLINICO ","41.9075033556327","12.5132947391936","0",""
"71277","REGINA ELENA- VIALE UNIVERSITA'","41.9057824634689","12.5154306035078","0",""
"71278","CASTANI- ACERI","41.8785036246361","12.5664113904603","0",""
"71279","UNIVERSITA'  LA SAPIENZA","41.904267585813","12.5173949367429","0",""
"71280","VERANO","41.9021460051503","12.5189931068988","0",""
"71281","PIOPPI- ORTENSIE","41.8771574715744","12.5672438470884","0",""
"71282","PIOPPI- ONTANI","41.8777148361265","12.5707683298927","0",""
"71284","SPIGHE","41.8760993834361","12.5743977734093","0",""
"71285","VERANO- DE LOLLIS","41.9015647843942","12.5185123039586","0",""
"71286","BELLA VILLA- SPIGHE","41.8738031992704","12.5754787398436","0",""
"71287","RETI","41.8988370880317","12.5181454417593","0",""
"71288","SCALO SAN LORENZO- AUSONI","41.8968644747507","12.519209909704","0",""
"71290","SCALO SAN LORENZO- SARDI","41.8955309286947","12.5180731525516","0",""
"71291","ALESSANDRINO- LAMPONI","41.8732529724524","12.5802175551059","0",""
"71292","SCALO SAN LORENZO- TALAMO","41.8938051640091","12.5165779815146","0",""
"71293","SCALO SAN LORENZO","41.8930326379719","12.5159307182185","0",""
"71296","OSTIENSE- STAZIONE VITINIA","41.7957018738009","12.4027052994584","0",""
"71297","ALESSANDRINO- PERGOLATO","41.8850796064006","12.5769950583799","0",""
"71298","ALESSANDRINO- LILLA'","41.8870597277867","12.5767888368778","0",""
"71299","PIAZZA DI PORTA MAGGIORE","41.8913916464794","12.5139326241973","0",""
"71300","MOLFETTA","41.8901407734344","12.5759698129442","0",""
"71302","TOGLIATTI- OSTUNI","41.8923860994645","12.5747825099296","0",""
"71303","TOGLIATTI","41.8936016149539","12.5749478393278","0",""
"71304","COCCONI","41.8937297465325","12.5634572580498","0",""
"71306","PARLATORE","41.8904284532554","12.5644361913214","0",""
"71307","CASTANI- GELSI","41.8881732225759","12.5654379617049","0",""
"71308","CASTANI- GARDENIE","41.8863303315002","12.5661135067515","0",""
"71309","CASTANI- ROBINIE","41.8832496897959","12.5667503463595","0",""
"71311","BRESADOLA","41.8928040861254","12.5615174124286","0",""
"71313","CASTANI- GELSI","41.8887742187933","12.5652071471059","0",""
"71314","FUCINI- DAVANZATI","41.9460728705469","12.5521123878502","0",""
"71316","CASTANI- FAGGI","41.8843739179802","12.5667326479114","0",""
"71317","GERANI","41.8859280625694","12.5666795574513","0",""
"71318","BASEGGIO","41.9674455785934","12.5337100913511","0",""
"71319","BASEGGIO","41.9671312104895","12.534155601225","0",""
"71320","PARLATORE","41.8910247657263","12.5646682533709","0",""
"71321","SAN PAOLO DEL BRASILE","41.9104789001688","12.4874029865051","0",""
"71322","SCALO SAN LORENZO","41.8930623164113","12.5161368832955","0",""
"71329","PORTA SAN SEBASTIANO","41.8729813106471","12.5016085474455","0",""
"71330","APPIA ANTICA- TRAVICELLA","41.8693339850654","12.502152037707","0",""
"71331","APPIA ANTICA- DOMINE QUO VADIS","41.8669507219259","12.5029245845667","0",""
"71332","APPIA ANTICA- CAFFARELLA","41.8649291422708","12.5060558923266","0",""
"71333","APPIA ANTICA- SCUOLA AGRARIA","41.8620920035653","12.5093151206426","0",""
"71334","CATACOMBE SAN CALLISTO","41.8597644086086","12.5119354856818","0",""
"71335","SCALO SAN LORENZO- TALAMO","41.8939316098796","12.5169222393794","0",""
"71337","SCALO SAN LORENZO- SARDI","41.8954942719704","12.518282848063","0",""
"71339","SCALO SAN LORENZO- AUSONI","41.8971712439905","12.5196390957002","0",""
"71344","RETI","41.8990500839047","12.5181258101968","0",""
"71345","VERANO- DE LOLLIS","41.9012492865888","12.5184154308976","0",""
"71348","SAN TARCISIO- APPIA PIGNATELLI","41.8428182052264","12.5420204641076","0",""
"71349","SAN TARCISIO- SAN PIER D'ALCANTARA","41.8437146209737","12.5445605364411","0",""
"71350","SAN TARCISIO- SAN CARLO DA SEZZE","41.8436334787059","12.5470838410708","0",""
"71351","VERANO","41.9023361796765","12.5192735176737","0",""
"71353","UNIVERSITA'  LA SAPIENZA","41.9041929866193","12.5176100023488","0",""
"71355","POLICLINICO ","41.9073232852996","12.5137072152106","0",""
"71357","APPIA PIGNATELLI- ERODE ATTICO","41.8404083849004","12.5447480715961","0",""
"71358","APPIA PIGNATELLI- CARVILII","41.8412520021406","12.5434785440038","0",""
"71359","VIALE REGINA MARGHERITA- NIZZA","41.9145308174373","12.5047770577752","0",""
"71362","CECILIA METELLA- APPIA PIGNATELLI","41.8517447341073","12.5259157466856","0",""
"71363","BUENOS AIRES","41.9179933009033","12.5004013991538","0",""
"71366","ROSSINI","41.921014052661","12.4919479066558","0",""
"71369","ROSSINI- BIOPARCO","41.9192471028465","12.4905393034267","0",""
"71372","APPIA ANTICA- SCUOLA AGRARIA","41.8620969010892","12.5095408303746","0",""
"71373","ALDROVANDI","41.918784809232","12.4855008707755","0",""
"71374","APPIA ANTICA- CAFFARELLA","41.8658389279704","12.5051530502024","0",""
"71375","APPIA ANTICA- DOMINE QUO VADIS","41.8674697341088","12.502909447599","0",""
"71376","APPIA ANTICA- TRAVICELLA","41.8696262065274","12.5022459372687","0",""
"71377","PORTA SAN SEBASTIANO","41.8732862488536","12.5022291767218","0",""
"71378","GALLERIA ARTE MODERNA","41.9167238017089","12.4815256110908","0",""
"71379","MUSEO ETRUSCO VILLA GIULIA","41.9187693567987","12.4769141269501","0",""
"71384","NAVICELLA- PORTA METRONIA","41.8827423563232","12.4973781463697","0",""
"71385","PIRANDELLO","41.9473518320293","12.5630415403644","0",""
"71386","DELEDDA","41.9456351157931","12.5611665900235","0",""
"71393","STAMPA- NEGRI","41.9464038907533","12.5599653190857","0",""
"71394","DUE MACELLI- CAPO LE CASE","41.9036366526818","12.4847800494731","0",""
"71401","PANNINI","41.9282568562984","12.463240047659","0",""
"71402","VIA OSTIENSE- CAVALCAVIA ACILIA","41.7872479175768","12.3701380323912","0",""
"71404","NIZZA- VIALE REGINA MARGHERITA","41.914244538251","12.5038741692972","0",""
"71406","CALABRIA","41.9100983028631","12.4979418666538","0",""
"71408","MONTALCINI- RIPANDELLI","41.8493195217135","12.4527052992299","0",""
"71409","CORSO D'ITALIA- PO","41.9109377583246","12.4931380501125","0",""
"71410","FOLCHI- RAMAZZINI","41.8676539142955","12.4536273277929","0",""
"71411","FOLCHI- RAMAZZINI","41.8676582483158","12.4532591932459","0",""
"71415","TOR MARANCIA- LOTTO","41.8523014759907","12.4983893246861","0",""
"71416","GENTILONI- FOSCARI","41.9510530303263","12.523284646556","0",""
"71417","GENTILONI- OCCHINI","41.9501429900234","12.5233886603968","0",""
"71418","CANDONI- MAGLIANA ","41.8286630621174","12.4161809627052","0",""
"71420","MAGLIANA- DELLE VIGNE","41.8328730957085","12.4222541745552","0",""
"71421","MAGLIANA- PINO LECCE","41.8343311700442","12.425746132914","0",""
"71422","ATENEO SALESIANO","41.9592009360756","12.5236362125057","0",""
"71423","TEMPIO ARVALI- TRULLO","41.8345937640878","12.4347627356421","0",""
"71424","TRULLO- MAGLIANA","41.8342173070044","12.4363969726556","0",""
"71425","MAGLIANA- AVENZA","41.8333387966492","12.4399687641697","0",""
"71426","MAGLIANA- IDROVORE MAGLIANA","41.8344106343989","12.448265093131","0",""
"71427","MAGLIANA- ASCIANO","41.8373165011484","12.4506435643699","0",""
